#------------------------------------------------------------
~VERSION INFORMATION
VERS.               2.0  :CWLS LOG ASCII STANDARD - VERSION 2.0
WRAP.                NO  :ONE LINE PER DEPTH STEP
#------------------------------------------------------------
~WELL INFORMATION
STRT.M          2.00000  :FIRST INDEX VALUE
STOP.M          716.000  :LAST INDEX VALUE
STEP.M         0.100000  :STEP
NULL.            -99999  :NULL VALUE
COMP.                    :COMPANY
WELL.            OD021F  :WELL
FLD.        OLIVE DOWNS  :FIELD
LOC.          MORANBAH  :LOCATION
LATI.                    :LATITUDE
LONG.                    :LONGITUDE
GDAT.              R.T.  :GEODETIC DATUM
SRVC.        GAA WIRELINE  :SERVICE COMPANY
CTRY.                    :COUNTRY
PROV.        BOWEN BASIN  :PROVINCE
STAT.               QLD  :STATE
CNTY.                    :COUNTY
DATE.        27-OCT-2011  :LOG DATE
UWI.                    :UWI
API.                    :API NUMBER
LIC.                    :LICENSE NUMBER
#------------------------------------------------------------
~CURVE INFORMATION
DEPT.M                   :DEPTH
GR.API                 :GR
CALI.MM                  :Cali
LSD.G/CC                :LSD
SSD.G/CC                :SSD
#------------------------------------------------------------
~OTHER
#------------------------------------------------------------
~A   DEPT[M]     GR[API]    Cali[mm]    LSD[g/cc    SSD[g/cc
# ...
     701.600     90.5169     194.918     2.26335     2.40801
     701.700     81.2089     194.765     2.24838     2.45745
     701.800     99.2651     194.888     2.25084     2.42258
     701.900     78.4175     194.767     2.30110     2.35124
     702.000     85.1671     194.888     2.28626     2.38209
     702.100     63.7083     194.963     2.26887     2.36114
     702.200     84.0983     194.734     2.41267     2.42974
     702.300     65.4973     194.834     2.25610     2.49379
     702.400     124.085     194.818     2.29728     2.42923
     702.500     82.3678     194.963     2.23968     2.42105
     702.600     59.9128     194.936     2.21279     2.36003
     702.700     109.787     195.031     2.21747     2.35916
     702.800     100.074     194.817     2.29049     2.38665
     702.900     69.5171     194.886     2.25195     2.41536
     703.000     82.0438     194.945     2.21810     2.40205
     703.100     97.6223     194.853     2.26529     2.40411
     703.200     72.5844     194.734     2.20330     2.34391
     703.300     54.6431     194.734     2.23913     2.35531
     703.400     110.172     194.860     2.23527     2.37441
     703.500     81.3043     194.817     2.21497     2.40816
     703.600     115.066     194.634     2.26444     2.42922
     703.700     74.8151     194.751     2.25413     2.39720
     703.800     86.5529     194.572     2.33184     2.35761
     703.900     88.6896     194.499     2.27997     2.36059
     704.000     85.9453     194.617     2.26408     2.36982
     704.100     97.3790     194.051     2.30757     2.37294
     704.200     92.3713     193.999     2.24716     2.35838
     704.300     80.6541     193.226     2.32765     2.46622
     704.400     60.2271     193.053     2.21724     2.41579
     704.500     121.575     193.288     2.28250     2.47939
     704.600     68.5140     193.439     2.31718     2.43124
     704.700     77.4835     193.455     2.26732     2.40876
     704.800     99.3790     193.654     2.23650     2.36998
     704.900     66.5762     193.463     2.34891     2.41419
     705.000     101.553     193.344     2.26828     2.43546
     705.100     98.5253     193.344     2.25518     2.37122
     705.200     45.1985     193.130     2.23565     2.46412
     705.300     102.253     193.397     2.19755     2.44546
     705.400     88.8143     193.129     2.29399     2.48087
     705.500     70.3702     193.300     2.26059     2.44665
     705.600     72.2281     193.144     2.31771     2.44048
     705.700     77.4459     193.178     2.31828     2.38526
     705.800     84.3890     193.040     2.25594     2.42610
     705.900     76.9278     193.199     2.26169     2.37402
     706.000     54.2813     193.259     2.21993     2.32001
     706.100     73.6023     193.262     2.32119     2.38803
     706.200     57.4880     193.086     2.29940     2.41602
     706.300     77.4289     192.927     2.30907     2.56205
     706.400     89.2292     193.172     2.29791     2.43800
     706.500     86.3944     193.283     2.29398     2.44104
     706.600     111.205     193.138     2.31245     2.37646
     706.700     82.6029     193.424     2.27191     2.40093
     706.800     106.307     193.441     2.32714     2.29715
     706.900     73.6023     193.138     2.27238     2.39724
     707.000     87.0929     193.336     2.22267     2.42919
     707.100     91.8191     193.023     2.26214     2.40170
     707.200     106.996     193.307     2.25071     2.34014
     707.300     87.4878     192.904     2.21157     2.44890
     707.400     74.9858     193.373     2.33687     2.43218
     707.500     75.4653     193.124     2.32199     2.46120
     707.600     48.1143     193.402     2.25069     2.44729
     707.700     103.433     193.373     2.24604     2.38413
     707.800     102.041     193.010     2.27862     2.36290
     707.900     99.8850     193.250     2.29254     2.44183
     708.000     69.2299     193.321     2.25220     2.41137
     708.100     72.5349     193.529     2.32603     2.38445
     708.200     72.7750     193.424     2.30045     2.34647
     708.300     115.690     193.513     2.39314     2.38461
     708.400     79.0005     193.514     2.25643     2.50101
     708.500     36.2043     193.368     2.42694     2.60370
     708.600     88.5157     193.357     2.35001     2.51214
     708.700     56.3838     193.104     2.34387     2.39272
     708.800     42.1701     193.283     2.30855     2.41596
     708.900     65.2845     193.285     2.28961     2.41423
     709.000     87.4878     193.386     2.26967     2.41063
     709.100     110.717     193.108     2.26324     2.41567
     709.200     83.9363     193.239     2.31984     2.42378
     709.300     80.9128     193.243     2.31514     2.40044
     709.400     87.1788     193.278     2.26246     2.42333
     709.500     101.592     192.702     2.28266     2.40162
     709.600     78.7211     191.753     2.21636     2.41352
     709.700     95.3119     191.777     2.29387     2.36871
     709.800     71.5854     191.587     2.25669     2.39446
     709.900     68.7521     191.660     2.29806     2.37988
     710.000     86.4498     191.648     2.26055     2.42644
     710.100     68.4967     191.546     2.30621     2.41145
     710.200     106.195     191.770     2.28851     2.42288
     710.300     45.4165     191.607     2.29071     2.34736
     710.400     74.5826     190.322     2.29754     2.48035
     710.500     67.0455     190.531     2.33152     2.40689
     710.600     87.0537     190.423     2.23929     2.39936
     710.700     75.4087     190.270     2.31460     2.49887
     710.800     73.6288     190.488     2.38647     2.41116
     710.900     70.8910     190.471     2.25717     2.39610
     711.000     44.0032     190.124     2.21157     2.39987
     711.100     76.8564     190.500     2.27610     2.36540
     711.200     89.8021     190.482     2.28596     2.40677
     711.300     98.9996     190.498     2.32008     2.51609
     711.400     128.936     190.259     2.21450     2.44277
     711.500     90.2470     190.245     2.21737     2.37555
     711.600     103.606     190.413     2.17939     2.28760
     711.700     97.8550     190.413     2.26712     2.38568
     711.800     107.307     190.531     2.26628     2.41308
     711.900     91.4566     190.592     2.29748     2.40282
     712.000     79.7638     190.189     2.24561     2.40799
     712.100     85.4924     190.121     2.33105     2.37806
     712.200     86.5295     190.207     2.32939     2.39391
     712.300     88.3861     190.249     2.21737     2.37549
     712.400     109.686     188.837     2.29066     2.42843
     712.500     54.6511     188.992     2.29983     2.41127
     712.600     77.8890     188.838     2.29428     2.41475
     712.700     71.5400     188.147     2.24623     2.39827
     712.800     51.9227     186.427     2.27307     2.35784
     712.900     49.7085     184.253     2.23603     2.37667
     713.000     118.905     181.938     2.25037     2.40904
     713.100     94.9126     178.998     2.21127     2.42343
     713.200     75.2473     174.028     2.22103     2.44361
     713.300     38.0991     168.337     2.20649     2.29981
     713.400     89.9081     161.635     2.13865     2.30439
     713.500     60.6567     149.553     2.04795     2.31749
     713.600     114.747     125.942     2.04449     2.10392
     713.700     90.2346     93.5414     1.83296     2.00878
     713.800     68.1043     72.5925     1.68292     1.86978
     713.900     71.0849     67.3541     1.55354     1.61749
     714.000     84.1195     64.5125     1.52106     1.43995
     714.100     93.1927     62.2202     1.47002     1.36560
     714.200     53.3602     61.8625     1.43604     1.33286
     714.300    -99999.0     61.2879     1.40086     1.32136
     714.400    -99999.0     61.3246     1.42738     1.29015
     714.500    -99999.0     61.5969     1.41102     1.29064
     714.600    -99999.0     61.3332     1.40518     1.27161
     714.700    -99999.0     61.2815     1.40040     1.28459
