#------------------------------------------------------------
~VERSION INFORMATION
VERS.               2.0  :CWLS LOG ASCII STANDARD - VERSION 2.0
WRAP.                NO  :ONE LINE PER DEPTH STEP
#------------------------------------------------------------
~WELL INFORMATION
STRT.M          2.00000  :FIRST INDEX VALUE
STOP.M          716.000  :LAST INDEX VALUE
STEP.M         0.100000  :STEP
NULL.            -99999  :NULL VALUE
COMP.                    :COMPANY
WELL.            OD021F  :WELL
FLD.        OLIVE DOWNS  :FIELD
LOC.          MORANBAH  :LOCATION
LATI.                    :LATITUDE
LONG.                    :LONGITUDE
GDAT.              R.T.  :GEODETIC DATUM
SRVC.        GAA WIRELINE  :SERVICE COMPANY
CTRY.                    :COUNTRY
PROV.        BOWEN BASIN  :PROVINCE
STAT.               QLD  :STATE
CNTY.                    :COUNTY
DATE.        27-OCT-2011  :LOG DATE
UWI.                    :UWI
API.                    :API NUMBER
LIC.                    :LICENSE NUMBER
#------------------------------------------------------------
~CURVE INFORMATION
DEPT.M                   :DEPTH
GR.API                 :GR
CALI.MM                  :Cali
LSD.G/CC                :LSD
SSD.G/CC                :SSD
#------------------------------------------------------------
~OTHER
#------------------------------------------------------------
~A   DEPT[M]     GR[API]    Cali[mm]    LSD[g/cc    SSD[g/cc
# ...
     648.800     71.2936     224.490     2.29251     2.43298
     648.900     53.8121     224.295     2.21778     2.31966
     649.000     72.2620     224.683     2.21179     2.39231
     649.100     25.5630     224.291     2.32586     2.41578
     649.200     38.5539     224.384     2.13826     2.36749
     649.300     55.7672     224.392     2.29818     2.38984
     649.400     31.3480     224.246     2.26785     2.37082
     649.500     36.7742     224.164     2.21541     2.35923
     649.600     66.0610     224.407     2.21798     2.35588
     649.700     50.3701     224.171     2.22532     2.36920
     649.800     35.9895     224.368     2.24573     2.45034
     649.900     53.2786     224.265     2.17895     2.41854
     650.000     33.3768     224.062     2.29490     2.36720
     650.100     45.4521     224.384     2.23464     2.40029
     650.200     43.7025     224.257     2.30809     2.42673
     650.300     27.9842     224.329     2.19837     2.44198
     650.400     32.9370     224.346     2.15234     2.43796
     650.500     42.7187     224.046     2.25970     2.40220
     650.600     45.1271     224.012     2.23381     2.37402
     650.700     30.4166     224.046     2.19200     2.43557
     650.800     42.8719     223.993     2.23474     2.33929
     650.900     57.7872     224.258     2.16100     2.37342
     651.000     42.7317     224.109     2.25216     2.38413
     651.100     10.2001     223.898     2.28481     2.39131
     651.200     49.3188     224.007     2.26210     2.43095
     651.300     53.8877     224.109     2.18214     2.40212
     651.400     29.8770     224.110     2.23148     2.41721
     651.500     30.3363     224.164     2.26506     2.40825
     651.600     52.0433     224.097     2.22187     2.41073
     651.700     36.4326     224.312     2.32624     2.41575
     651.800     62.5315     224.615     2.21848     2.34810
     651.900     51.2438     224.621     2.13050     2.40091
     652.000     30.6660     224.570     2.22181     2.42510
     652.100     51.0352     224.968     2.16204     2.44894
     652.200     38.8173     224.706     2.30123     2.41400
     652.300     30.5150     224.848     2.16656     2.40548
     652.400     27.5555     225.352     2.27420     2.44860
     652.500     31.4132     225.460     2.18355     2.45028
     652.600     45.0382     225.494     2.26941     2.39479
     652.700     32.3293     226.299     2.33474     2.45691
     652.800     40.0193     226.544     2.24133     2.38945
     652.900     49.7909     226.419     2.23382     2.41949
     653.000     41.6205     226.297     2.24561     2.39824
     653.100     18.5682     226.900     2.26945     2.44412
     653.200     48.7948     226.978     2.25685     2.41054
     653.300     24.4973     227.482     2.35603     2.43158
     653.400     41.7058     227.975     2.25991     2.44904
     653.500     21.8185     228.325     2.23743     2.36806
     653.600     18.3112     228.421     2.23326     2.41161
     653.700     24.1934     228.789     2.24405     2.38375
     653.800     45.8422     228.947     2.23437     2.40258
     653.900     9.58939     229.646     2.13193     2.38266
     654.000     16.6012     229.344     2.28863     2.35279
     654.100     44.5164     230.019     2.23300     2.40306
     654.200     36.1711     230.382     2.25970     2.40871
     654.300     52.1946     230.239     2.31991     2.36165
     654.400     62.1430     230.671     2.35217     2.35263
     654.500     30.7943     230.717     2.27354     2.40332
     654.600     64.0346     232.115     2.20668     2.44957
     654.700     59.5314     232.827     2.18712     2.40682
     654.800     28.1328     232.383     2.20888     2.37719
     654.900     34.0288     232.910     2.25069     2.34425
     655.000     55.6946     233.490     2.26006     2.37957
     655.100     30.6116     233.789     2.20074     2.37578
     655.200     51.0292     234.315     2.26674     2.36579
     655.300     35.9195     234.566     2.29560     2.47038
     655.400     39.1264     235.150     2.28137     2.42598
     655.500     43.3615     236.012     2.21070     2.38119
     655.600     58.1837     236.640     2.18537     2.41203
     655.700     58.0057     237.162     2.31045     2.37104
     655.800     53.3319     237.822     2.12943     2.32303
     655.900     30.3123     238.701     2.17382     2.17992
     656.000     66.8955     239.801     2.06348     2.00487
     656.100     39.9336     240.499     1.90077     1.80477
     656.200     51.6088     241.808     1.94170     1.72978
     656.300     87.5584     242.945     1.96061     1.94254
     656.400     106.248     243.579     1.98335     2.20194
     656.500     89.6271     244.265     2.01470     1.96811
     656.600     94.0987     245.025     1.89386     1.80834
     656.700     55.4687     249.594     1.79412     1.78382
     656.800     54.9576     247.091     1.80690     1.73852
     656.900     88.9385     246.840     1.76042     1.69300
     657.000     45.5273     248.233     1.77315     1.65604
     657.100     91.1914     249.985     1.79139     1.67320
     657.200     43.0648     250.033     1.88530     1.79646
     657.300     85.1368     250.390     1.99870     1.96739
     657.400     79.3318     250.757     2.12592     2.19696
     657.500     102.241     251.528     2.07211     2.25151
     657.600     76.0110     252.029     2.07977     2.02125
     657.700     68.8989     252.029     1.97857     1.90782
     657.800     60.5572     252.411     1.89812     1.91800
     657.900     71.9365     253.996     1.79153     1.84323
     658.000     64.2528     253.871     1.91565     1.61185
     658.100     80.0638     253.744     1.89618     1.80856
     658.200     56.3913     254.371     1.97732     2.20191
     658.300     65.6076     254.852     1.98235     2.23768
     658.400     52.6730     255.485     2.01801     1.91541
     658.500     84.7365     255.609     2.02410     1.86249
     658.600     95.9835     255.797     1.85231     2.16163
     658.700     45.9268     256.179     1.83230     1.82578
     658.800     36.1899     257.002     1.88530     1.59111
     658.900     96.4900     256.902     1.78254     1.73707
     659.000     57.4620     257.067     1.85623     1.98374
     659.100     96.5292     257.166     1.96059     1.92684
     659.200     129.903     257.373     2.04932     2.01836
     659.300     191.946     257.179     2.03084     2.29379
     659.400     135.901     257.235     2.16014     2.23402
     659.500     104.068     256.972     2.01905     2.04839
     659.600     104.390     257.194     2.03180     1.91858
     659.700     83.8262     257.215     1.98754     1.94527
     659.800     77.4299     256.631     1.90210     1.99793
     659.900     69.3535     256.474     1.90797     1.86688
     660.000     66.8979     256.667     1.83224     1.80116
     660.100     51.7821     256.587     1.76469     1.69512
     660.200     51.9243     256.948     1.71036     1.65234
     660.300     18.6249     256.482     1.66515     1.58633
     660.400     38.3386     255.938     1.62227     1.52889
     660.500     53.3319     255.714     1.63629     1.56804
     660.600     43.4912     255.507     1.64133     1.61742
     660.700     44.5598     255.625     1.77496     1.67057
     660.800     40.0446     255.272     1.76136     1.73621
     660.900     76.9557     253.871     1.88378     1.85432
     661.000     83.6508     253.634     1.95799     1.95723
     661.100     39.2655     253.606     1.94139     1.96012
     661.200     45.9268     253.607     1.86651     1.80259
     661.300     60.2833     253.360     1.75221     1.71604
     661.400     34.9097     253.392     1.71720     1.61705
     661.500     45.1246     252.918     1.65589     1.56024
     661.600     41.0501     250.955     1.63748     1.60417
     661.700     99.1752     250.820     1.69499     1.65449
     661.800     39.6677     250.032     1.70131     1.60301
     661.900     67.3416     249.972     1.77123     1.66734
