#------------------------------------------------------------
~VERSION INFORMATION
VERS.               2.0  :CWLS LOG ASCII STANDARD - VERSION 2.0
WRAP.                NO  :ONE LINE PER DEPTH STEP
#------------------------------------------------------------
~WELL INFORMATION
STRT.M          2.00000  :FIRST INDEX VALUE
STOP.M          716.000  :LAST INDEX VALUE
STEP.M         0.100000  :STEP
NULL.            -99999  :NULL VALUE
COMP.                    :COMPANY
WELL.            OD021F  :WELL
FLD.        OLIVE DOWNS  :FIELD
LOC.          MORANBAH  :LOCATION
LATI.                    :LATITUDE
LONG.                    :LONGITUDE
GDAT.              R.T.  :GEODETIC DATUM
SRVC.        GAA WIRELINE  :SERVICE COMPANY
CTRY.                    :COUNTRY
PROV.        BOWEN BASIN  :PROVINCE
STAT.               QLD  :STATE
CNTY.                    :COUNTY
DATE.        27-OCT-2011  :LOG DATE
UWI.                    :UWI
API.                    :API NUMBER
LIC.                    :LICENSE NUMBER
#------------------------------------------------------------
~CURVE INFORMATION
DEPT.M                   :DEPTH
GR.API                 :GR
CALI.MM                  :Cali
LSD.G/CC                :LSD
SSD.G/CC                :SSD
#------------------------------------------------------------
~OTHER
#------------------------------------------------------------
~A   DEPT[M]     GR[API]    Cali[mm]    LSD[g/cc    SSD[g/cc
# ...
     516.800     65.1300     230.729     2.25242     2.39419
     516.900     19.7668     230.892     2.19920     2.32610
     517.000     52.9278     230.877     2.30334     2.32961
     517.100     42.8999     230.878     2.15210     2.39128
     517.200     33.0719     230.935     2.17377     2.38880
     517.300     36.3442     231.409     2.24491     2.41975
     517.400     45.6070     231.054     2.28462     2.39636
     517.500     52.5897     231.136     2.22771     2.35150
     517.600     39.5013     230.974     2.20842     2.41187
     517.700     17.0566     230.921     2.16909     2.35105
     517.800     61.7920     231.051     2.16437     2.26777
     517.900     67.6418     230.892     2.21567     2.32176
     518.000     51.0312     230.704     2.15583     2.35206
     518.100     32.8086     230.732     2.23795     2.37486
     518.200     52.6106     230.600     2.24155     2.34275
     518.300     48.2257     230.892     2.13049     2.35045
     518.400     40.6656     230.597     2.16378     2.37761
     518.500     69.9291     230.892     2.19551     2.36182
     518.600     76.5540     230.892     2.18869     2.39105
     518.700     54.6585     230.733     2.15049     2.38318
     518.800     42.9442     230.863     2.15084     2.35788
     518.900     113.798     230.569     2.23117     2.35964
     519.000     57.7475     230.533     2.22882     2.39349
     519.100     33.1483     230.568     2.20913     2.42128
     519.200     61.9962     230.704     2.25676     2.43753
     519.300     39.2584     230.863     2.17817     2.40014
     519.400     30.1928     230.598     2.26580     2.44741
     519.500     78.3659     230.705     2.23349     2.33962
     519.600     22.9967     230.678     2.23889     2.42410
     519.700     35.4124     230.733     2.23892     2.44632
     519.800     51.2429     230.563     2.27957     2.41143
     519.900     46.5141     230.732     2.32784     2.32140
     520.000     30.0742     230.541     2.25152     2.36345
     520.100     45.9998     231.056     2.21955     2.42502
     520.200     52.2946     231.051     2.23390     2.40965
     520.300     46.1417     230.892     2.18068     2.34687
     520.400     45.6118     230.760     2.25796     2.31921
     520.500     32.9148     230.921     2.23275     2.34468
     520.600     30.5779     231.107     2.40428     2.41129
     520.700     43.3030     231.213     2.25611     2.39738
     520.800     52.7776     231.213     2.21589     2.40717
     520.900     48.5387     231.371     2.23584     2.40458
     521.000     64.2226     230.936     2.34366     2.40214
     521.100     46.5141     230.948     2.31782     2.41523
     521.200     26.8265     231.440     2.25569     2.45257
     521.300     54.8194     231.313     2.32300     2.39706
     521.400     53.5113     231.355     2.15860     2.40852
     521.500     52.3012     231.432     2.24495     2.39376
     521.600     52.0202     231.462     2.25015     2.38461
     521.700     67.5576     231.222     2.22895     2.32331
     521.800     46.5556     231.055     2.21640     2.36293
     521.900     68.4912     231.300     2.24800     2.38519
     522.000     55.7593     231.271     2.27788     2.35612
     522.100     28.8148     231.439     2.21290     2.34004
     522.200     79.9137     231.409     2.11159     2.38635
     522.300     98.4790     231.271     2.15361     2.22816
     522.400     102.901     231.308     2.05084     1.92183
     522.500     60.3590     231.466     2.02520     1.95460
     522.600     74.6333     231.140     2.01340     2.01439
     522.700     119.531     231.112     2.02347     2.15297
     522.800     140.405     231.112     2.11061     2.02389
     522.900     86.2218     231.052     2.13638     2.05241
     523.000     103.894     230.963     2.08128     2.22027
     523.100     149.299     234.573     2.03111     2.22585
     523.200     158.644     227.042     2.05653     2.10054
     523.300     152.794     227.086     2.12139     2.06820
     523.400     186.936     227.001     2.16695     2.19396
     523.500     131.171     227.167     2.18509     2.23563
     523.600     198.617     227.166     2.11938     2.31942
     523.700     124.952     227.038     2.23073     2.31968
     523.800     114.329     227.212     2.18164     2.35110
     523.900     80.9771     227.122     2.20451     2.28065
     524.000     78.8746     227.100     2.12122     2.33897
     524.100     115.997     227.389     2.13149     2.30242
     524.200     115.622     227.245     2.24715     2.33572
     524.300     112.753     227.245     2.22493     2.29865
     524.400     85.3298     227.122     2.17249     2.26433
     524.500     67.8019     227.290     2.20426     2.31424
     524.600     107.873     227.190     2.20365     2.34635
     524.700     116.147     227.072     2.19561     2.32022
     524.800     134.451     227.028     2.21932     2.29186
     524.900     142.842     227.278     2.18678     2.28043
     525.000     142.900     227.184     2.17473     2.26529
     525.100     167.952     227.289     2.16930     2.27817
     525.200     57.9084     227.162     2.18063     2.37456
     525.300     89.5665     227.173     2.33630     2.35540
     525.400     61.6860     227.190     2.16811     2.33413
     525.500     65.9022     227.230     2.24454     2.36210
     525.600     60.3387     227.053     2.22786     2.37479
     525.700     54.8194     227.174     2.25790     2.41722
     525.800     61.6112     227.016     2.18874     2.31383
     525.900     48.0038     227.177     2.25001     2.38991
     526.000     91.4227     227.255     2.22640     2.34110
     526.100     86.0805     226.861     2.13521     2.39903
     526.200     56.8649     227.134     2.27892     2.41460
     526.300     44.2445     226.835     2.18169     2.36554
     526.400     61.0148     226.841     2.26906     2.30708
     526.500     35.8029     227.255     2.21283     2.37625
     526.600     60.6952     226.811     2.17964     2.37277
     526.700     66.2089     226.641     2.20021     2.38598
     526.800     62.0134     227.042     2.18901     2.36564
     526.900     43.3087     226.584     2.24982     2.35741
     527.000     63.1137     226.630     2.17658     2.39438
     527.100     40.7226     226.632     2.16613     2.31617
     527.200     54.2421     226.396     2.15995     2.30983
     527.300     82.4866     226.394     2.20088     2.42099
     527.400     44.9801     226.190     2.19919     2.33544
     527.500     70.2898     226.302     2.22136     2.35228
     527.600     76.1362     226.415     2.16101     2.37919
     527.700     57.5034     226.057     2.21636     2.41853
     527.800     88.4439     226.116     2.17613     2.23454
     527.900     142.791     226.134     2.14856     2.27390
     528.000     56.4331     226.430     2.15113     2.27215
     528.100     48.2959     226.054     2.26784     2.27946
     528.200     75.1060     226.209     2.20235     2.35071
     528.300     63.9875     226.230     2.11120     2.35640
     528.400     50.8387     226.209     2.33496     2.33182
     528.500     90.7085     226.057     2.23125     2.33198
     528.600     27.3742     226.284     2.20324     2.32603
     528.700     55.5278     226.175     2.24816     2.33978
     528.800     43.2484     226.319     2.21896     2.37673
     528.900     44.1164     226.115     2.17603     2.36929
     529.000     60.6004     226.108     2.25601     2.31714
     529.100     36.0794     226.208     2.19850     2.28069
     529.200     56.1038     226.209     2.22822     2.31499
     529.300     51.3127     225.990     2.23264     2.36230
     529.400     41.8242     226.100     2.20999     2.40457
     529.500     42.2292     226.143     2.22785     2.39438
     529.600     23.1216     226.219     2.19188     2.39620
     529.700     60.2170     226.189     2.27247     2.40936
     529.800     48.1251     226.000     2.19969     2.36233
     529.900     23.7645     226.209     2.25540     2.44643
