#------------------------------------------------------------
~VERSION INFORMATION
VERS.               2.0  :CWLS LOG ASCII STANDARD - VERSION 2.0
WRAP.                NO  :ONE LINE PER DEPTH STEP
#------------------------------------------------------------
~WELL INFORMATION
STRT.M          2.00000  :FIRST INDEX VALUE
STOP.M          716.000  :LAST INDEX VALUE
STEP.M         0.100000  :STEP
NULL.            -99999  :NULL VALUE
COMP.                    :COMPANY
WELL.            OD021F  :WELL
FLD.        OLIVE DOWNS  :FIELD
LOC.          MORANBAH  :LOCATION
LATI.                    :LATITUDE
LONG.                    :LONGITUDE
GDAT.              R.T.  :GEODETIC DATUM
SRVC.        GAA WIRELINE  :SERVICE COMPANY
CTRY.                    :COUNTRY
PROV.        BOWEN BASIN  :PROVINCE
STAT.               QLD  :STATE
CNTY.                    :COUNTY
DATE.        27-OCT-2011  :LOG DATE
UWI.                    :UWI
API.                    :API NUMBER
LIC.                    :LICENSE NUMBER
#------------------------------------------------------------
~CURVE INFORMATION
DEPT.M                   :DEPTH
GR.API                 :GR
CALI.MM                  :Cali
LSD.G/CC                :LSD
SSD.G/CC                :SSD
#------------------------------------------------------------
~OTHER
#------------------------------------------------------------
~A   DEPT[M]     GR[API]    Cali[mm]    LSD[g/cc    SSD[g/cc
# ...
     464.000     29.1084     232.846     2.20426     2.31567
     464.100     58.6107     233.117     2.26251     2.38693
     464.200     64.2825     232.836     2.26605     2.40940
     464.300     52.5436     232.820     2.15166     2.38775
     464.400     51.8705     232.828     2.15090     2.30786
     464.500     55.9147     232.978     2.17939     2.36920
     464.600     72.8508     232.952     2.22611     2.37895
     464.700     69.9212     232.928     2.15944     2.38216
     464.800     39.5645     233.079     2.23490     2.35488
     464.900     62.1256     233.109     2.21361     2.38360
     465.000     63.9627     232.788     2.25651     2.37162
     465.100     83.7418     232.962     2.20297     2.38617
     465.200     41.4967     232.959     2.20487     2.42101
     465.300     83.1718     232.613     2.20467     2.40291
     465.400     33.7911     232.910     2.17294     2.36314
     465.500     45.9442     232.846     2.27943     2.38569
     465.600     70.0571     232.730     2.21278     2.33471
     465.700     48.2032     232.793     2.23607     2.36657
     465.800     66.7998     232.971     2.23155     2.37207
     465.900     75.3119     232.821     2.22401     2.37407
     466.000     45.2589     232.645     2.18116     2.35691
     466.100     49.2925     232.763     2.22496     2.36605
     466.200     66.3877     232.820     2.25475     2.42478
     466.300     68.1119     232.602     2.23718     2.39860
     466.400     38.5263     232.610     2.24196     2.35334
     466.500     38.3981     232.756     2.14664     2.37308
     466.600     45.3466     232.788     2.20829     2.35913
     466.700     49.5195     232.731     2.21326     2.38798
     466.800     29.6509     232.763     2.22274     2.37119
     466.900     48.7791     232.776     2.20390     2.33432
     467.000     62.3223     232.441     2.21783     2.35172
     467.100     52.4841     232.383     2.17451     2.30276
     467.200     44.0891     232.265     2.16841     2.38490
     467.300     16.0468     232.259     2.28355     2.33693
     467.400     70.0859     232.119     2.20408     2.33662
     467.500     32.2346     231.891     2.18051     2.38995
     467.600     39.8679     232.003     2.25971     2.36723
     467.700     39.2655     231.973     2.22398     2.33642
     467.800     84.0013     231.697     2.21454     2.39046
     467.900     39.5514     231.685     2.23857     2.35386
     468.000     47.5050     231.508     2.21727     2.34968
     468.100     42.7178     231.320     2.33074     2.33293
     468.200     40.9480     231.135     2.22862     2.39329
     468.300     67.6641     231.243     2.26723     2.38277
     468.400     64.7323     230.921     2.29627     2.33513
     468.500     56.3940     230.571     2.20983     2.33209
     468.600     44.0659     230.672     2.21107     2.32016
     468.700     55.5802     230.864     2.22842     2.38622
     468.800     67.2834     231.051     2.21847     2.41871
     468.900     38.0641     231.109     2.20828     2.32144
     469.000     36.1964     230.934     2.14608     2.32017
     469.100     59.3698     231.094     2.17042     2.34173
     469.200     52.0991     231.079     2.19106     2.40551
     469.300     61.7030     231.084     2.26742     2.40794
     469.400     71.9148     231.053     2.19998     2.36042
     469.500     40.4843     230.971     2.25137     2.41038
     469.600     17.1428     230.841     2.24114     2.33078
     469.700     49.4698     230.489     2.20772     2.29720
     469.800     77.3290     230.652     2.17031     2.37163
     469.900     86.0526     230.152     2.18715     2.33653
     470.000     46.4676     230.095     2.28204     2.34363
     470.100     35.5905     230.046     2.18586     2.35721
     470.200     65.3672     230.038     2.16353     2.30970
     470.300     13.9720     230.302     2.21581     2.36911
     470.400     73.6885     230.019     2.28274     2.31542
     470.500     59.7379     229.982     2.20753     2.32090
     470.600     62.3223     229.999     2.21927     2.34935
     470.700     55.0152     229.986     2.19560     2.32922
     470.800     55.5080     230.002     2.24245     2.35146
     470.900     56.1168     229.994     2.20810     2.37515
     471.000     49.5405     230.176     2.22303     2.34858
     471.100     45.5809     230.097     2.21042     2.37260
     471.200     46.6017     229.994     2.22991     2.32962
     471.300     50.1505     229.953     2.19286     2.36520
     471.400     49.6052     229.929     2.18188     2.37637
     471.500     64.8438     229.983     2.19966     2.34592
     471.600     39.9743     230.103     2.29507     2.39423
     471.700     42.1247     229.932     2.19534     2.36976
     471.800     62.6805     229.787     2.29152     2.40346
     471.900     67.3069     229.932     2.21788     2.36979
     472.000     85.0099     229.901     2.23327     2.39028
     472.100     61.6717     229.822     2.25955     2.37812
     472.200     47.4110     229.581     2.18433     2.35099
     472.300     49.6403     229.375     2.17424     2.38297
     472.400     56.7060     229.369     2.20127     2.33405
     472.500     55.9967     229.343     2.27367     2.31712
     472.600     51.4844     229.369     2.24204     2.35396
     472.700     54.3660     229.222     2.22779     2.42653
     472.800     50.0024     229.364     2.23902     2.41129
     472.900     26.1842     229.317     2.27084     2.40926
     473.000     37.6803     229.343     2.26042     2.40631
     473.100     57.5936     229.401     2.23104     2.41047
     473.200     40.8164     229.877     2.17118     2.43109
     473.300     79.5225     229.563     2.18492     2.35318
     473.400     40.7066     229.604     2.22470     2.36566
     473.500     34.4007     229.576     2.21923     2.37109
     473.600     71.5493     229.575     2.23527     2.38577
     473.700     71.0074     229.534     2.21591     2.32563
     473.800     44.5977     229.726     2.21368     2.34871
     473.900     30.9153     229.433     2.25575     2.38536
     474.000     97.7978     229.433     2.29382     2.35986
     474.100     98.1895     229.781     2.15969     2.38352
     474.200     76.3692     229.726     2.21505     2.38657
     474.300     67.4674     229.737     2.15166     2.36214
     474.400     67.9599     229.540     2.24208     2.34307
     474.500     60.4312     229.915     2.24198     2.35578
     474.600     77.7110     229.728     2.24537     2.36451
     474.700     57.5545     230.052     2.24195     2.40532
     474.800     33.9776     230.184     2.19434     2.37048
     474.900     65.7263     230.055     2.22093     2.40564
     475.000     41.2514     230.302     2.26864     2.35730
     475.100     36.7950     230.465     2.18073     2.34367
     475.200     51.1468     230.126     2.19127     2.40645
     475.300     57.8815     230.243     2.25668     2.47981
     475.400     44.2571     230.126     2.19140     2.42009
     475.500     44.7092     230.077     2.27010     2.43287
     475.600     61.6717     229.939     2.25874     2.39547
     475.700     85.8652     229.967     2.28083     2.43394
     475.800     49.8948     230.274     2.26136     2.40302
     475.900     46.0423     230.098     2.17789     2.36294
     476.000     56.0722     229.968     2.30258     2.35079
     476.100     49.6598     230.226     2.31534     2.39201
     476.200     42.6372     230.126     2.25111     2.36228
     476.300     59.3575     230.258     2.22523     2.35722
     476.400     43.4575     230.254     2.18981     2.32294
     476.500     33.6229     230.404     2.28947     2.35392
     476.600     46.0269     229.939     2.21119     2.38278
     476.700     30.2913     230.123     2.20014     2.36008
     476.800     67.6068     230.095     2.26645     2.40385
     476.900     75.5992     230.095     2.26617     2.38688
     477.000     82.1733     230.095     2.34229     2.37556
     477.100     69.8559     229.930     2.21734     2.36984
