#------------------------------------------------------------
~VERSION INFORMATION
VERS.               2.0  :CWLS LOG ASCII STANDARD - VERSION 2.0
WRAP.                NO  :ONE LINE PER DEPTH STEP
#------------------------------------------------------------
~WELL INFORMATION
STRT.M          2.00000  :FIRST INDEX VALUE
STOP.M          716.000  :LAST INDEX VALUE
STEP.M         0.100000  :STEP
NULL.            -99999  :NULL VALUE
COMP.                    :COMPANY
WELL.            OD021F  :WELL
FLD.        OLIVE DOWNS  :FIELD
LOC.          MORANBAH  :LOCATION
LATI.                    :LATITUDE
LONG.                    :LONGITUDE
GDAT.              R.T.  :GEODETIC DATUM
SRVC.        GAA WIRELINE  :SERVICE COMPANY
CTRY.                    :COUNTRY
PROV.        BOWEN BASIN  :PROVINCE
STAT.               QLD  :STATE
CNTY.                    :COUNTY
DATE.        27-OCT-2011  :LOG DATE
UWI.                    :UWI
API.                    :API NUMBER
LIC.                    :LICENSE NUMBER
#------------------------------------------------------------
~CURVE INFORMATION
DEPT.M                   :DEPTH
GR.API                 :GR
CALI.MM                  :Cali
LSD.G/CC                :LSD
SSD.G/CC                :SSD
#------------------------------------------------------------
~OTHER
#------------------------------------------------------------
~A   DEPT[M]     GR[API]    Cali[mm]    LSD[g/cc    SSD[g/cc
# ...
     424.400     87.6907     225.820     2.18216     2.26720
     424.500     107.935     225.820     2.24002     2.28752
     424.600     95.9012     225.749     2.16792     2.33830
     424.700     82.1147     225.933     2.17726     2.33741
     424.800     57.7040     225.637     2.15661     2.32220
     424.900     96.1073     225.690     2.16561     2.31894
     425.000     75.1399     226.057     2.19408     2.30894
     425.100     88.3372     225.738     2.17216     2.29597
     425.200     56.4299     225.618     2.11673     2.24853
     425.300     70.6020     225.943     2.17417     2.34691
     425.400     68.3032     225.893     2.15110     2.36698
     425.500     91.3754     225.709     2.18766     2.30356
     425.600     73.4325     225.806     2.16652     2.32578
     425.700     112.639     225.786     2.21026     2.29452
     425.800     73.1361     225.710     2.18431     2.30661
     425.900     82.2047     225.618     2.15535     2.29410
     426.000     95.1887     225.839     2.19573     2.25105
     426.100     56.3197     225.618     2.16266     2.41952
     426.200     92.2649     226.088     2.26775     2.49067
     426.300     93.5908     226.660     2.20909     2.36964
     426.400     114.072     226.499     2.23930     2.32082
     426.500     50.9105     226.426     2.23171     2.35245
     426.600     37.5021     226.738     2.17680     2.31831
     426.700     60.9106     226.535     2.23730     2.39731
     426.800     111.648     226.404     2.16608     2.29330
     426.900     78.3377     226.617     2.16758     2.38568
     427.000     100.991     226.786     2.14000     2.34353
     427.100     69.3251     226.759     2.23209     2.35384
     427.200     105.255     226.825     2.29301     2.47614
     427.300     69.0373     226.722     2.20540     2.38200
     427.400     106.612     226.759     2.20417     2.33390
     427.500     61.5240     226.387     2.26027     2.31091
     427.600     92.0177     226.775     2.25503     2.33190
     427.700     92.2649     226.825     2.24008     2.37037
     427.800     58.8466     227.153     2.21414     2.40003
     427.900     125.383     227.318     2.17813     2.40950
     428.000     92.8294     228.076     2.24152     2.36656
     428.100     93.5702     228.171     2.12125     2.29352
     428.200     114.368     228.229     2.17892     2.20923
     428.300     94.5323     229.037     2.12612     2.23794
     428.400     99.7960     228.833     2.18490     2.23738
     428.500     120.425     228.806     2.17235     2.33358
     428.600     64.5896     228.806     2.15571     2.35774
     428.700     139.126     229.132     2.19073     2.26137
     428.800     109.100     229.007     2.15296     2.24116
     428.900     135.510     229.547     2.14159     2.29686
     429.000     78.6653     229.908     2.13791     2.29233
     429.100     71.3018     229.937     2.17603     2.26324
     429.200     94.5395     229.922     2.22288     2.32410
     429.300     109.229     229.925     2.22363     2.33230
     429.400     104.771     229.754     2.23222     2.26851
     429.500     101.032     229.863     2.14167     2.29598
     429.600     114.444     229.949     2.14534     2.23390
     429.700     102.526     229.896     2.17246     2.21052
     429.800     77.5065     230.057     2.12870     2.29733
     429.900     74.8009     230.502     2.18469     2.28531
     430.000     62.1409     232.771     2.22318     2.20717
     430.100     78.4730     231.252     2.06758     2.27066
     430.200     41.0577     231.281     2.02507     2.18386
     430.300     72.4094     231.281     1.99435     1.99821
     430.400     83.9224     231.029     1.95200     1.98622
     430.500     69.1759     238.530     1.83926     1.82739
     430.600     69.9167     231.252     1.87982     1.48551
     430.700     65.3997     230.787     1.91950     1.80996
     430.800     74.4813     231.088     2.00454     2.14769
     430.900     79.0699     231.124     2.09254     2.30125
     431.000     78.8816     231.612     2.15339     2.30380
     431.100     91.6120     231.513     2.20246     2.32770
     431.200     83.1051     231.291     2.33258     2.33574
     431.300     71.3908     231.689     2.27351     2.42566
     431.400     86.5603     232.303     2.15272     2.31719
     431.500     61.9483     232.272     2.21429     2.29970
     431.600     88.0211     232.395     2.24720     2.32166
     431.700     72.4094     232.310     2.21293     2.34105
     431.800     106.580     233.026     2.23398     2.32271
     431.900     113.371     232.630     2.20504     2.34242
     432.000     115.874     232.997     2.21847     2.35282
     432.100     108.878     233.391     2.21511     2.31819
     432.200     59.9825     233.647     2.12670     2.25121
     432.300     74.4225     234.237     2.09348     2.14312
     432.400     89.3330     234.690     2.12108     2.23023
     432.500     85.2936     235.238     2.12438     2.34483
     432.600     100.717     235.536     2.21466     2.29842
     432.700     55.9794     236.019     2.16975     2.27405
     432.800     52.5570     236.540     2.17850     2.32750
     432.900     80.7064     236.659     2.28320     2.37370
     433.000     56.9296     237.326     2.26053     2.36490
     433.100     139.901     237.742     2.27218     2.41843
     433.200     72.4822     237.763     2.24047     2.34295
     433.300     100.101     238.250     2.24552     2.38250
     433.400     88.8874     238.635     2.22633     2.34744
     433.500     52.8800     238.595     2.18367     2.36368
     433.600     78.7090     238.728     2.18744     2.34609
     433.700     36.2509     238.794     2.19499     2.37711
     433.800     115.609     239.145     2.16686     2.36484
     433.900     93.3449     239.516     2.28573     2.34240
     434.000     88.6983     239.609     2.25000     2.38712
     434.100     90.3920     239.277     2.17765     2.38862
     434.200     51.6079     239.602     2.22363     2.39361
     434.300     75.8912     239.990     2.21591     2.30993
     434.400     127.930     240.073     2.26918     2.28508
     434.500     92.8602     240.268     2.23407     2.29878
     434.600     83.0530     240.680     2.17163     2.31961
     434.700     99.3286     241.017     2.21646     2.37945
     434.800     91.0515     241.074     2.27241     2.37463
     434.900     76.0755     241.498     2.27475     2.35862
     435.000     77.0734     242.067     2.27133     2.35709
     435.100     74.1007     241.833     2.26957     2.41796
     435.200     97.4625     242.590     2.19118     2.35276
     435.300     87.6605     243.258     2.16396     2.36167
     435.400     63.2583     243.290     2.23917     2.35324
     435.500     54.8171     243.723     2.17619     2.33193
     435.600     56.7844     244.223     2.24231     2.36905
     435.700     108.196     244.842     2.13661     2.31638
     435.800     66.2200     245.258     2.13806     2.36979
     435.900     111.176     246.828     2.25147     2.32999
     436.000     83.0765     247.609     2.17225     2.34040
     436.100     132.534     248.378     2.19647     2.27396
     436.200     73.0864     249.174     2.13969     2.28082
     436.300     98.6070     250.322     2.07441     2.16784
     436.400     53.2401     272.808     1.89262     1.97465
     436.500     45.9424     251.429     1.71897     1.53917
     436.600     50.3020     252.666     1.54296     1.42622
     436.700     41.5608     251.996     1.42651     1.44707
     436.800     20.1509     251.545     1.45439     1.36811
     436.900     23.4954     252.057     1.45920     1.37631
     437.000     17.9499     252.215     1.39827     1.39235
     437.100     26.5826     252.436     1.39810     1.32485
     437.200     20.8829     252.773     1.38006     1.29169
     437.300     10.3438     254.911     1.34597     1.31475
     437.400     56.5133     247.037     1.35225     1.30270
     437.500     36.3659     247.038     1.34244     1.28209
