#------------------------------------------------------------
~VERSION INFORMATION
VERS.               2.0  :CWLS LOG ASCII STANDARD - VERSION 2.0
WRAP.                NO  :ONE LINE PER DEPTH STEP
#------------------------------------------------------------
~WELL INFORMATION
STRT.M          2.00000  :FIRST INDEX VALUE
STOP.M          716.000  :LAST INDEX VALUE
STEP.M         0.100000  :STEP
NULL.            -99999  :NULL VALUE
COMP.                    :COMPANY
WELL.            OD021F  :WELL
FLD.        OLIVE DOWNS  :FIELD
LOC.          MORANBAH  :LOCATION
LATI.                    :LATITUDE
LONG.                    :LONGITUDE
GDAT.              R.T.  :GEODETIC DATUM
SRVC.        GAA WIRELINE  :SERVICE COMPANY
CTRY.                    :COUNTRY
PROV.        BOWEN BASIN  :PROVINCE
STAT.               QLD  :STATE
CNTY.                    :COUNTY
DATE.        27-OCT-2011  :LOG DATE
UWI.                    :UWI
API.                    :API NUMBER
LIC.                    :LICENSE NUMBER
#------------------------------------------------------------
~CURVE INFORMATION
DEPT.M                   :DEPTH
GR.API                 :GR
CALI.MM                  :Cali
LSD.G/CC                :LSD
SSD.G/CC                :SSD
#------------------------------------------------------------
~OTHER
#------------------------------------------------------------
~A   DEPT[M]     GR[API]    Cali[mm]    LSD[g/cc    SSD[g/cc
     2.00000     30.3573     202.740     2.58115     3.44871
     2.10000     28.0091     202.758     2.49804     3.49152
     2.20000     22.4619     202.766     2.59506     3.39724
     2.30000     20.1081     202.760     2.51106     3.24535
     2.40000     25.3320     202.854     2.56363     3.24132
     2.50000     14.6966     202.895     2.58513     3.27959
     2.60000     36.3354     202.854     2.43345     3.23008
     2.70000     22.9298     202.854     2.40947     3.21685
     2.80000     45.9174     202.763     2.53852     3.26155
     2.90000     19.9276     202.844     2.42198     3.30884
     3.00000     17.0436     202.641     2.58602     3.28315
     3.10000     32.2338     202.682     2.42517     3.36348
     3.20000     23.0785     202.806     2.42931     3.24365
     3.30000     22.6698     202.796     2.56633     3.23283
     3.40000     20.1792     202.945     2.46207     3.20072
     3.50000     43.0785     202.802     2.51448     3.24105
     3.60000     34.9890     202.592     2.57761     3.21909
     3.70000     31.2528     202.844     2.61279     3.18498
     3.80000     20.8512     202.889     2.40445     3.20704
     3.90000     30.2428     202.844     2.38434     3.29023
     4.00000     32.4443     202.989     2.42950     3.19217
     4.10000     41.4201     202.879     2.45413     3.20755
     4.20000     31.7950     202.841     2.46101     3.18864
     4.30000     36.5639     202.943     2.47223     3.22212
     4.40000     47.4991     202.724     2.50558     3.25275
     4.50000     33.5921     202.626     2.39337     3.23092
     4.60000     43.0781     202.774     2.55562     3.17099
     4.70000     37.7665     202.889     2.41565     3.23959
     4.80000     43.6809     202.645     2.22750     3.09348
     4.90000     27.2300     202.815     2.19906     2.96172
     5.00000     29.6595     202.825     2.22237     3.10545
     5.10000     20.9846     202.719     2.42395     3.14674
     5.20000     44.1058     202.606     2.43506     3.13243
     5.30000     30.8189     202.729     2.41030     3.19243
     5.40000     41.2294     202.792     2.35195     3.15827
     5.50000     24.3258     202.805     2.37567     3.15914
     5.60000     45.4889     202.714     2.42523     3.11152
     5.70000     28.0209     202.713     2.41911     3.17681
     5.80000     10.4576     202.666     2.43242     3.25449
     5.90000     29.9192     202.544     2.48988     3.20961
     6.00000     20.5547     202.614     2.44500     3.33864
     6.10000     37.6014     202.763     2.39380     3.22926
     6.20000     24.0636     202.865     2.44138     3.20031
     6.30000     24.1775     202.868     2.34374     3.10993
     6.40000     53.4921     202.979     2.35977     3.01563
     6.50000     24.4935     202.926     2.43735     3.08696
     6.60000     21.4565     202.713     2.31089     3.06301
     6.70000     50.9264     202.643     2.49727     3.10491
     6.80000     42.1606     202.737     2.44615     3.03789
     6.90000     10.4576     202.775     2.44225     3.06255
     7.00000     31.5969     202.712     2.40523     3.04870
     7.10000     31.2525     202.751     2.42217     3.01613
     7.20000     40.6912     203.001     2.41259     3.01147
     7.30000     34.6940     202.897     2.41404     3.01372
     7.40000     34.8381     202.999     2.44842     3.01513
     7.50000     50.5997     202.798     2.45353     3.02258
     7.60000     31.0928     202.908     2.47147     2.99620
     7.70000     24.2483     202.889     2.36888     2.96200
     7.80000     61.8608     202.852     2.36845     3.03506
     7.90000     50.5049     202.999     2.36972     2.97056
     8.00000     24.2347     202.754     2.44455     3.01067
     8.10000     27.4065     202.650     2.40449     3.02941
     8.20000     55.0222     202.896     2.44088     3.06672
     8.30000     37.8048     203.074     2.31631     2.99393
     8.40000     64.7929     202.763     2.37288     2.97420
     8.50000     55.5766     202.885     2.46157     2.95312
     8.60000     37.9225     202.787     2.39039     2.97413
     8.70000     43.4769     203.046     2.35306     2.91646
     8.80000     36.0744     202.988     2.39086     2.97226
     8.90000     46.8577     202.990     2.43165     2.96289
     9.00000     36.9054     202.557     2.43739     2.93817
     9.10000     30.2183     202.921     2.28395     2.97303
     9.20000     52.9113     202.828     2.43267     2.96169
     9.30000     48.2375     202.827     2.32620     2.96578
     9.40000     53.0702     202.795     2.45834     2.95457
     9.50000     63.1960     202.888     2.40968     2.96209
     9.60000     20.6396     202.825     2.36461     2.96899
     9.70000     50.6675     202.865     2.41659     2.95312
     9.80000     40.6655     203.035     2.34828     3.07819
     9.90000     40.1507     202.840     2.29372     2.95893
     10.0000     33.9102     202.626     2.39610     2.99134
     10.1000     32.8064     202.700     2.36641     3.02313
     10.2000     70.7722     202.803     2.43357     2.96872
     10.3000     43.4079     202.828     2.33399     2.94023
     10.4000     23.3811     202.498     2.37672     3.00352
     10.5000     47.8857     202.417     2.38884     2.99132
     10.6000     23.7342     202.777     2.35197     3.08449
     10.7000     37.2412     202.766     2.45064     3.06244
     10.8000     27.7835     202.626     2.39221     3.00401
     10.9000     68.5193     202.601     2.38069     3.00585
     11.0000     36.4914     202.676     2.34443     3.07869
     11.1000     46.2688     202.601     2.43337     3.01045
     11.2000     36.3932     202.485     2.51805     3.04283
     11.3000     17.1363     202.393     2.56114     2.98698
     11.4000     40.0239     202.825     2.42832     3.03538
     11.5000     20.2707     202.590     2.42671     3.12808
     11.6000     33.6663     202.716     2.33753     3.08109
     11.7000     23.7342     202.191     2.34874     3.04685
     11.8000     43.5726     201.853     2.35548     2.98322
     11.9000     73.5495     202.131     2.27281     2.96215
     12.0000     39.8261     202.306     2.28698     2.74797
     12.1000     78.9072     202.046     2.35040     2.91900
     12.2000     27.2429     202.216     2.30313     3.00522
     12.3000     49.6141     202.579     2.34652     2.98711
     12.4000     46.5709     202.713     2.35684     2.88184
     12.5000     54.9162     202.726     2.32809     2.86410
     12.6000     41.1799     202.544     2.30015     2.89138
     12.7000     22.7354     202.751     2.29899     2.83596
     12.8000     52.8891     202.498     2.40229     2.80050
     12.9000     34.0271     202.520     2.37051     2.89202
     13.0000     53.8146     202.837     2.41453     2.82256
     13.1000     39.6383     202.584     2.32042     2.84865
     13.2000     72.8011     202.579     2.37315     2.85309
     13.3000     36.9983     202.572     2.36138     2.89803
     13.4000     27.6188     202.520     2.37159     2.84362
     13.5000     50.4279     202.520     2.30775     2.88928
     13.6000     43.4311     202.685     2.30656     2.88147
     13.7000     37.5819     202.410     2.29205     2.84798
     13.8000     77.0148     202.417     2.32481     2.82903
     13.9000     53.7883     202.485     2.35767     2.81158
     14.0000     50.6184     202.726     2.32681     2.80603
     14.1000     64.0115     202.614     2.28651     2.83775
     14.2000     69.9287     202.417     2.33844     2.84930
     14.3000     70.7712     202.529     2.32926     2.85068
     14.4000     34.7140     202.329     2.34583     2.89638
     14.5000     38.0103     202.665     2.36412     2.85901
     14.6000     109.290     202.485     2.30899     2.88424
     14.7000     38.1892     202.488     2.23812     2.89631
     14.8000     48.0649     202.417     2.28909     2.79100
     14.9000     70.1875     202.520     2.33872     2.78415
     15.0000     85.9447     202.393     2.20843     2.86067
     15.1000     65.4183     202.579     2.32502     2.79606
