#------------------------------------------------------------
~VERSION INFORMATION
VERS.               2.0  :CWLS LOG ASCII STANDARD - VERSION 2.0
WRAP.                NO  :ONE LINE PER DEPTH STEP
#------------------------------------------------------------
~WELL INFORMATION
STRT.M          2.00000  :FIRST INDEX VALUE
STOP.M          716.000  :LAST INDEX VALUE
STEP.M         0.100000  :STEP
NULL.            -99999  :NULL VALUE
COMP.                    :COMPANY
WELL.            OD021F  :WELL
FLD.        OLIVE DOWNS  :FIELD
LOC.          MORANBAH  :LOCATION
LATI.                    :LATITUDE
LONG.                    :LONGITUDE
GDAT.              R.T.  :GEODETIC DATUM
SRVC.        GAA WIRELINE  :SERVICE COMPANY
CTRY.                    :COUNTRY
PROV.        BOWEN BASIN  :PROVINCE
STAT.               QLD  :STATE
CNTY.                    :COUNTY
DATE.        27-OCT-2011  :LOG DATE
UWI.                    :UWI
API.                    :API NUMBER
LIC.                    :LICENSE NUMBER
#------------------------------------------------------------
~CURVE INFORMATION
DEPT.M                   :DEPTH
GR.API                 :GR
CALI.MM                  :Cali
LSD.G/CC                :LSD
SSD.G/CC                :SSD
#------------------------------------------------------------
~OTHER
#------------------------------------------------------------
~A   DEPT[M]     GR[API]    Cali[mm]    LSD[g/cc    SSD[g/cc
# ...
     186.800     87.9007     205.241     2.21010     2.40611
     186.900     77.1389     205.441     2.27207     2.38657
     187.000     101.132     205.332     2.22705     2.39016
     187.100     95.0739     205.618     2.23750     2.38487
     187.200     66.8140     205.453     2.21665     2.39868
     187.300     100.792     205.603     2.26268     2.37357
     187.400     112.947     205.343     2.23611     2.38563
     187.500     81.9372     205.402     2.21500     2.35759
     187.600     72.7315     205.406     2.27698     2.42991
     187.700     125.499     205.233     2.22000     2.38397
     187.800     71.3411     205.289     2.16047     2.38283
     187.900     124.778     205.215     2.21836     2.40690
     188.000     95.0537     205.014     2.23547     2.39481
     188.100     124.118     205.282     2.23323     2.41371
     188.200     69.3359     204.947     2.16336     2.39929
     188.300     82.2823     204.680     2.24803     2.41208
     188.400     77.5284     204.771     2.22593     2.38134
     188.500     77.1103     204.761     2.18487     2.38082
     188.600     84.9363     204.617     2.21905     2.41039
     188.700     123.582     204.745     2.23568     2.39317
     188.800     78.3122     204.548     2.20462     2.34992
     188.900     125.701     204.818     2.29741     2.38794
     189.000     109.499     204.737     2.24305     2.40241
     189.100     60.7850     204.653     2.21201     2.39474
     189.200     92.8115     204.598     2.18960     2.42394
     189.300     111.385     204.228     2.30216     2.37221
     189.400     80.0655     204.437     2.25205     2.40625
     189.500     76.9203     204.478     2.24484     2.35309
     189.600     89.4917     204.423     2.29980     2.39161
     189.700     103.150     204.555     2.25624     2.38550
     189.800     132.720     204.531     2.28091     2.37869
     189.900     105.489     204.818     2.20725     2.34245
     190.000     77.3618     204.564     2.22810     2.41044
     190.100     100.255     204.564     2.21244     2.38259
     190.200     85.6094     204.534     2.27630     2.37595
     190.300     74.6424     204.618     2.16926     2.37495
     190.400     68.4158     204.582     2.33130     2.40762
     190.500     67.8324     204.564     2.28143     2.37090
     190.600     91.9241     204.737     2.24537     2.38815
     190.700     104.239     204.548     2.25164     2.39330
     190.800     64.9181     204.818     2.25212     2.42592
     190.900     122.426     204.380     2.26877     2.37211
     191.000     91.5667     204.636     2.34157     2.40381
     191.100     72.2019     204.720     2.18250     2.38672
     191.200     108.398     204.799     2.22331     2.40234
     191.300     67.9791     204.636     2.19946     2.40375
     191.400     131.641     204.629     2.26892     2.45821
     191.500     93.7665     204.578     2.28342     2.45727
     191.600     83.1346     204.398     2.24706     2.43954
     191.700     84.7674     204.480     2.29822     2.42285
     191.800     68.9937     204.463     2.24475     2.37722
     191.900     100.333     204.463     2.25213     2.41774
     192.000     93.1161     204.446     2.21562     2.39016
     192.100     63.5679     204.411     2.23037     2.41599
     192.200     85.4419     204.602     2.23707     2.41112
     192.300     103.803     204.446     2.31351     2.40238
     192.400     79.9539     204.531     2.20962     2.37476
     192.500     86.3323     204.614     2.19210     2.37857
     192.600     72.8695     204.629     2.22215     2.35505
     192.700     92.8835     204.720     2.27803     2.40108
     192.800     94.0844     204.564     2.27317     2.37434
     192.900     95.6949     204.636     2.34365     2.39794
     193.000     60.0786     204.638     2.29631     2.42458
     193.100     62.9331     204.531     2.24723     2.37495
     193.200     60.4516     204.439     2.26736     2.37060
     193.300     53.9790     204.530     2.23961     2.38356
     193.400     61.0436     204.647     2.24359     2.45150
     193.500     73.0621     204.632     2.25308     2.41473
     193.600     73.7179     204.608     2.28413     2.42395
     193.700     59.2311     204.560     2.33284     2.43414
     193.800     45.3222     204.430     2.24285     2.40097
     193.900     87.2596     204.531     2.27295     2.45640
     194.000     75.4053     204.365     2.26138     2.50339
     194.100     85.3281     204.513     2.35018     2.55994
     194.200     48.5703     204.395     2.30052     2.58510
     194.300     82.1330     204.330     2.29296     2.49258
     194.400     86.2802     204.463     2.21663     2.37905
     194.500     121.006     204.363     2.19146     2.34779
     194.600     109.802     204.515     2.25207     2.41386
     194.700    -99999.0     204.513     2.22791     2.39185
     194.800     93.2666     204.393     2.23108     2.39683
     194.900     106.234     204.481     2.26813     2.39599
     195.000     125.990     204.513     2.23940     2.40723
     195.100     81.9144     204.611     2.26819     2.46728
     195.200     104.864     204.516     2.25068     2.41791
     195.300     52.2531     204.531     2.23191     2.42584
     195.400     108.181     204.412     2.23036     2.42890
     195.500     84.6849     204.328     2.33465     2.39192
     195.600     124.154     204.531     2.30602     2.39886
     195.700     131.016     204.531     2.29866     2.45168
     195.800     93.8807     204.395     2.26231     2.36086
     195.900     78.6696     204.567     2.22963     2.36937
     196.000     89.7063     204.421     2.29116     2.39395
     196.100     73.2591     204.321     2.27956     2.37665
     196.200     83.5289     204.607     2.18304     2.30622
     196.300     38.7447     204.260     2.18978     2.37252
     196.400     64.9420     204.304     2.20887     2.38347
     196.500     49.4527     204.342     2.23525     2.38113
     196.600     55.8508     204.443     2.28697     2.38494
     196.700     52.1018     204.483     2.39548     2.44754
     196.800     49.5094     204.567     2.31797     2.38866
     196.900     88.1179     204.483     2.22537     2.37286
     197.000     44.2816     204.340     2.24325     2.37549
     197.100     74.3287     204.423     2.28621     2.40066
     197.200     84.8201     204.677     2.23386     2.40621
     197.300     119.349     204.474     2.27986     2.36977
     197.400     80.4194     204.615     2.22840     2.41108
     197.500     84.6442     204.516     2.22805     2.39307
     197.600     77.4066     204.627     2.21197     2.40971
     197.700     80.0437     204.523     2.24803     2.39643
     197.800     133.025     204.567     2.25890     2.43273
     197.900     101.092     204.647     2.27064     2.43242
     198.000     102.944     204.567     2.25318     2.45242
     198.100     61.7015     204.421     2.24289     2.44377
     198.200     87.9250     204.785     2.23596     2.39075
     198.300     82.6249     204.483     2.21154     2.41252
     198.400     89.5687     204.443     2.28960     2.34278
     198.500     81.7771     204.668     2.24538     2.41537
     198.600     81.9875     204.624     2.32928     2.34219
     198.700     77.3592     204.421     2.14177     2.36791
     198.800     129.219     204.687     2.21348     2.34401
     198.900     54.3889     204.215     2.18158     2.32402
     199.000     150.913     204.460     2.22644     2.39435
     199.100     82.7162     204.668     2.13190     2.34958
     199.200     88.4925     204.247     2.30888     2.34342
     199.300     97.5022     204.544     2.30542     2.31937
     199.400     72.0121     204.184     2.25073     2.34158
     199.500     84.0804     204.463     2.21215     2.39425
     199.600     53.8526     204.325     2.21106     2.34321
     199.700     134.008     204.321     2.25580     2.38990
     199.800     92.3370     204.425     2.22582     2.36739
     199.900     83.3298     204.404     2.26832     2.41373
