#------------------------------------------------------------
~VERSION INFORMATION
VERS.               2.0  :CWLS LOG ASCII STANDARD - VERSION 2.0
WRAP.                NO  :ONE LINE PER DEPTH STEP
#------------------------------------------------------------
~WELL INFORMATION
STRT.M          2.00000  :FIRST INDEX VALUE
STOP.M          716.000  :LAST INDEX VALUE
STEP.M         0.100000  :STEP
NULL.            -99999  :NULL VALUE
COMP.                    :COMPANY
WELL.            OD021F  :WELL
FLD.        OLIVE DOWNS  :FIELD
LOC.          MORANBAH  :LOCATION
LATI.                    :LATITUDE
LONG.                    :LONGITUDE
GDAT.              R.T.  :GEODETIC DATUM
SRVC.        GAA WIRELINE  :SERVICE COMPANY
CTRY.                    :COUNTRY
PROV.        BOWEN BASIN  :PROVINCE
STAT.               QLD  :STATE
CNTY.                    :COUNTY
DATE.        27-OCT-2011  :LOG DATE
UWI.                    :UWI
API.                    :API NUMBER
LIC.                    :LICENSE NUMBER
#------------------------------------------------------------
~CURVE INFORMATION
DEPT.M                   :DEPTH
GR.API                 :GR
CALI.MM                  :Cali
LSD.G/CC                :LSD
SSD.G/CC                :SSD
#------------------------------------------------------------
~OTHER
#------------------------------------------------------------
~A   DEPT[M]     GR[API]    Cali[mm]    LSD[g/cc    SSD[g/cc
# ...
     147.200     85.4433     206.221     2.26421     2.36689
     147.300     120.318     206.099     2.29735     2.35249
     147.400     103.181     206.205     2.20790     2.42403
     147.500     129.659     206.049     2.21061     2.39332
     147.600     98.6850     206.268     2.26956     2.39263
     147.700     103.136     206.070     2.27418     2.37545
     147.800     116.142     206.221     2.26464     2.36844
     147.900     90.4138     206.157     2.32089     2.42011
     148.000     76.1406     206.190     2.22128     2.42724
     148.100     131.896     206.205     2.26541     2.36850
     148.200     89.2904     206.348     2.32258     2.39093
     148.300     99.7578     206.200     2.28250     2.37383
     148.400     116.099     206.304     2.24654     2.37081
     148.500     101.379     206.262     2.28923     2.40156
     148.600     120.814     205.948     2.35698     2.32905
     148.700     104.954     206.120     2.31845     2.37784
     148.800     107.407     206.242     2.26685     2.37082
     148.900     90.6299     206.157     2.19975     2.40245
     149.000     146.150     206.164     2.14577     2.39333
     149.100     59.5054     206.203     2.19482     2.40637
     149.200     111.544     205.929     2.26547     2.41179
     149.300     48.0963     206.203     2.21247     2.38025
     149.400     102.498     206.135     2.13540     2.39026
     149.500     87.7845     206.137     2.26233     2.41432
     149.600     88.4341     206.289     2.23148     2.40345
     149.700     119.055     206.077     2.24749     2.39132
     149.800     94.9366     205.944     2.27222     2.38840
     149.900     121.131     206.311     2.18592     2.38960
     150.000     96.3051     206.159     2.23833     2.40924
     150.100     124.600     206.018     2.22244     2.37827
     150.200     86.6671     206.184     2.23195     2.36083
     150.300     100.184     206.005     2.24359     2.42924
     150.400     90.0049     206.142     2.25437     2.42752
     150.500     98.9863     206.049     2.27497     2.42742
     150.600     78.4628     205.883     2.28953     2.40003
     150.700     58.3457     205.831     2.24359     2.41386
     150.800     77.9917     206.002     2.25114     2.39186
     150.900     89.8015     205.648     2.17245     2.36750
     151.000     106.956     205.815     2.30067     2.31793
     151.100     68.4436     205.934     2.24433     2.43671
     151.200     138.934     205.788     2.26045     2.41604
     151.300     92.3397     206.154     2.19618     2.43660
     151.400     85.1162     206.138     2.30280     2.40307
     151.500     125.909     205.794     2.32724     2.44002
     151.600     75.3040     206.069     2.27814     2.38105
     151.700     128.970     205.809     2.22437     2.40721
     151.800     106.945     205.966     2.23422     2.39846
     151.900     81.1206     206.048     2.20511     2.37070
     152.000     70.3315     205.876     2.22965     2.39916
     152.100     129.424     205.903     2.21448     2.39262
     152.200     107.175     205.999     2.28532     2.39764
     152.300     120.653     205.740     2.27917     2.43282
     152.400     82.0426     206.053     2.33079     2.41492
     152.500     78.6911     205.804     2.29249     2.41988
     152.600     98.4525     206.053     2.25774     2.39201
     152.700     87.8039     205.815     2.26713     2.34832
     152.800     74.8522     205.830     2.29231     2.40462
     152.900     82.5377     205.913     2.25657     2.41352
     153.000     82.0498     205.990     2.30118     2.42127
     153.100     111.923     205.992     2.19570     2.41093
     153.200     108.461     205.906     2.24838     2.40971
     153.300     56.7607     206.076     2.27350     2.43538
     153.400     56.3733     205.893     2.19325     2.41201
     153.500     87.1066     205.904     2.25402     2.36873
     153.600     108.379     205.944     2.22445     2.37742
     153.700     132.391     205.887     2.23262     2.37339
     153.800     111.167     205.724     2.29505     2.37770
     153.900     106.682     205.616     2.28129     2.37099
     154.000     105.874     205.984     2.20954     2.39729
     154.100     67.8464     205.903     2.19974     2.37850
     154.200     90.7832     205.919     2.29166     2.41793
     154.300     119.408     205.721     2.33671     2.41911
     154.400     143.465     206.084     2.27151     2.33496
     154.500     98.6633     206.153     2.28392     2.41536
     154.600     86.2050     205.815     2.20124     2.40547
     154.700     153.049     205.831     2.19129     2.38293
     154.800     72.5268     206.053     2.32969     2.38725
     154.900     86.7804     205.929     2.36895     2.37296
     155.000     64.1712     206.049     2.22884     2.37587
     155.100     97.7336     205.847     2.24736     2.39661
     155.200     44.1340     206.068     2.20611     2.40681
     155.300     92.5490     205.632     2.20163     2.33555
     155.400     120.783     205.704     2.28322     2.42448
     155.500     122.576     205.779     2.18024     2.36500
     155.600     143.491     205.762     2.24145     2.40284
     155.700     101.583     205.769     2.21874     2.37686
     155.800     119.360     205.688     2.30107     2.38919
     155.900     110.693     205.762     2.24689     2.40844
     156.000     105.394     205.741     2.27776     2.39491
     156.100     68.0048     205.847     2.26052     2.37494
     156.200     114.578     205.794     2.31918     2.37079
     156.300     95.5719     205.867     2.21512     2.39873
     156.400     81.2663     205.794     2.29424     2.40361
     156.500     91.2109     205.794     2.24681     2.38185
     156.600     78.5806     205.762     2.18223     2.38783
     156.700     92.9044     205.806     2.25870     2.39237
     156.800     129.150     205.877     2.25276     2.37903
     156.900     84.7170     205.934     2.20634     2.39416
     157.000     124.717     205.779     2.29622     2.38040
     157.100     67.9020     205.794     2.24448     2.40362
     157.200     109.273     205.696     2.26029     2.41974
     157.300     83.5098     205.875     2.24670     2.40882
     157.400     93.3681     205.861     2.27283     2.36642
     157.500     59.6588     205.803     2.31146     2.36966
     157.600     57.9874     205.760     2.31395     2.39068
     157.700     85.5062     205.790     2.23899     2.40006
     157.800     88.9276     205.799     2.26805     2.38687
     157.900     93.9803     205.883     2.32441     2.32806
     158.000     99.7385     205.783     2.21867     2.41882
     158.100     56.5786     205.877     2.35715     2.39853
     158.200     87.2898     205.725     2.26600     2.39649
     158.300     80.8213     205.860     2.24541     2.41725
     158.400     115.154     205.799     2.22215     2.39578
     158.500     67.9592     205.729     2.19676     2.40771
     158.600     53.9549     205.786     2.19859     2.45224
     158.700     74.5594     205.949     2.31908     2.38205
     158.800     90.3382     205.769     2.24478     2.37188
     158.900     109.070     205.762     2.20985     2.38241
     159.000     116.466     205.797     2.26057     2.43013
     159.100     113.012     205.949     2.20463     2.37417
     159.200     86.8623     205.688     2.24995     2.41931
     159.300     106.438     205.762     2.23862     2.39927
     159.400     90.5722     206.002     2.29820     2.41013
     159.500     117.872     205.802     2.24686     2.40160
     159.600     53.7365     205.806     2.30664     2.37646
     159.700     110.306     205.876     2.29736     2.38537
     159.800     108.302     205.822     2.27786     2.38603
     159.900     88.3824     205.779     2.26598     2.39396
     160.000     97.3959     205.850     2.25349     2.39491
     160.100     84.1845     205.847     2.25589     2.39057
     160.200     92.0218     205.580     2.30558     2.35738
     160.300     136.699     205.759     2.30396     2.38225
