#------------------------------------------------------------
~VERSION INFORMATION
VERS.               2.0  :CWLS LOG ASCII STANDARD - VERSION 2.0
WRAP.                NO  :ONE LINE PER DEPTH STEP
#------------------------------------------------------------
~WELL INFORMATION
STRT.M          2.00000  :FIRST INDEX VALUE
STOP.M          716.000  :LAST INDEX VALUE
STEP.M         0.100000  :STEP
NULL.            -99999  :NULL VALUE
COMP.                    :COMPANY
WELL.            OD021F  :WELL
FLD.        OLIVE DOWNS  :FIELD
LOC.          MORANBAH  :LOCATION
LATI.                    :LATITUDE
LONG.                    :LONGITUDE
GDAT.              R.T.  :GEODETIC DATUM
SRVC.        GAA WIRELINE  :SERVICE COMPANY
CTRY.                    :COUNTRY
PROV.        BOWEN BASIN  :PROVINCE
STAT.               QLD  :STATE
CNTY.                    :COUNTY
DATE.        27-OCT-2011  :LOG DATE
UWI.                    :UWI
API.                    :API NUMBER
LIC.                    :LICENSE NUMBER
#------------------------------------------------------------
~CURVE INFORMATION
DEPT.M                   :DEPTH
GR.API                 :GR
CALI.MM                  :Cali
LSD.G/CC                :LSD
SSD.G/CC                :SSD
#------------------------------------------------------------
~OTHER
#------------------------------------------------------------
~A   DEPT[M]     GR[API]    Cali[mm]    LSD[g/cc    SSD[g/cc
# ...
     54.8000     57.3369     202.485     2.24555     2.80727
     54.9000     24.0636     202.564     2.30244     2.74827
     55.0000     20.7252     202.626     2.22693     2.82238
     55.1000     39.9533     202.626     2.29831     2.84509
     55.2000     37.2333     202.602     2.39584     2.85263
     55.3000     48.0686     202.417     2.34550     2.78134
     55.4000     38.1113     202.974     2.31315     2.74559
     55.5000     51.4545     203.015     2.29480     2.86111
     55.6000     30.4883     203.035     2.27084     2.97891
     55.7000     55.0883     202.781     2.30113     3.02628
     55.8000     40.0242     202.510     2.43830     2.89658
     55.9000     40.8419     202.828     2.33507     2.80623
     56.0000     51.6417     202.791     2.39385     2.84447
     56.1000     56.6480     202.787     2.30976     2.86949
     56.2000     67.3089     202.917     2.34792     2.95638
     56.3000     64.3687     202.726     2.32340     2.86785
     56.4000     51.4520     202.787     2.30061     2.86340
     56.5000     61.8629     202.726     2.39297     2.97212
     56.6000     84.0678     202.725     2.34624     2.96109
     56.7000     82.5549     202.674     2.40035     2.83833
     56.8000     70.1878     202.964     2.34310     2.85021
     56.9000     73.4417     202.860     2.28524     2.92963
     57.0000     60.6688     202.964     2.26315     2.84978
     57.1000     74.2000     202.757     2.30796     2.89142
     57.2000     58.1395     202.879     2.35508     2.91724
     57.3000     74.5475     202.620     2.36797     2.89664
     57.4000     114.057     202.785     2.31516     2.90019
     57.5000     62.2093     202.886     2.34212     2.88806
     57.6000     56.7463     202.849     2.38275     2.95685
     57.7000     96.1677     202.852     2.32385     2.89673
     57.8000     40.6671     202.828     2.34563     2.82729
     57.9000     94.0911     202.687     2.37761     2.93343
     58.0000     81.1665     202.510     2.32061     2.92874
     58.1000     80.4656     202.964     2.42118     2.94895
     58.2000     37.8547     203.039     2.39359     2.92928
     58.3000     78.0569     202.751     2.39864     2.96398
     58.4000     88.0364     202.964     2.37968     2.93024
     58.5000     51.5336     202.852     2.35641     2.95695
     58.6000     90.8720     202.816     2.42056     2.94108
     58.7000     34.3771     202.775     2.40831     2.96362
     58.8000     54.4744     202.988     2.35801     2.91885
     58.9000     53.1514     202.766     2.42404     2.97617
     59.0000     53.9224     202.626     2.45901     2.97575
     59.1000     61.3804     202.787     2.40025     3.02760
     59.2000     54.0745     202.638     2.29507     3.00192
     59.3000     14.5350     202.555     2.55004     3.02190
     59.4000     37.6723     202.928     2.43563     3.07340
     59.5000     55.6824     202.952     2.44364     3.00804
     59.6000     71.0342     202.485     2.40611     3.06078
     59.7000     26.7564     202.638     2.37826     3.03332
     59.8000     50.4276     202.964     2.38908     3.03803
     59.9000     87.3660     202.626     2.37649     3.07056
     60.0000     64.7784     202.803     2.42885     3.11946
     60.1000     63.9237     202.840     2.40264     3.10601
     60.2000     41.4122     202.602     2.35698     3.05559
     60.3000     30.6582     202.650     2.41443     3.06659
     60.4000     78.2183     202.712     2.44176     3.08630
     60.5000     51.3763     202.852     2.53089     3.13916
     60.6000     51.6862     202.650     2.36129     3.08173
     60.7000     38.9781     202.751     2.53659     3.10259
     60.8000     58.3759     202.803     2.38689     3.06701
     60.9000     66.0955     202.952     2.44886     3.08685
     61.0000     44.9925     202.958     2.44842     3.08885
     61.1000     54.7814     202.816     2.42715     3.11474
     61.2000     66.9401     202.659     2.50032     3.16394
     61.3000     78.3003     202.596     2.46753     3.12881
     61.4000     85.3246     202.519     2.44471     3.12717
     61.5000     41.0899     202.590     2.39534     3.15256
     61.6000     37.2457     202.725     2.48726     2.98730
     61.7000     53.9371     202.655     2.48910     3.20116
     61.8000     53.0322     202.449     2.47511     3.23299
     61.9000     70.4868     202.828     2.43547     3.27833
     62.0000     56.5079     202.652     2.56858     3.20518
     62.1000     73.6528     202.727     2.60769     3.21544
     62.2000     53.3085     202.614     2.51488     3.15713
     62.3000     90.5336     202.791     2.46896     3.22699
     62.4000     61.8053     202.952     2.49345     3.13867
     62.5000     80.5490     202.650     2.48434     3.10262
     62.6000     41.1869     202.626     2.58155     3.10394
     62.7000     67.1513     202.626     2.50095     3.08496
     62.8000     86.6970     202.816     2.55493     3.07680
     62.9000     73.6695     202.590     2.38469     3.17166
     63.0000     55.0095     202.510     2.44557     3.16663
     63.1000     53.7149     202.555     2.38049     3.12316
     63.2000     74.0862     202.885     2.49612     3.08522
     63.3000     128.481     202.674     2.40050     3.12273
     63.4000     49.4986     202.674     2.68835     3.13696
     63.5000     70.7889     202.726     2.39558     3.16275
     63.6000     84.6442     202.727     2.51849     3.17076
     63.7000     79.5042     202.816     2.53221     3.17260
     63.8000     95.4703     202.876     2.47013     3.18614
     63.9000     33.7769     202.852     2.45081     3.22287
     64.0000     41.4070     202.928     2.49426     3.21341
     64.1000     63.6838     202.614     2.44625     3.14037
     64.2000     104.839     202.952     2.52831     3.18590
     64.3000     55.1122     203.085     2.41347     3.20109
     64.4000     64.4507     202.811     2.44181     3.23715
     64.5000     58.4203     202.567     2.48779     3.21060
     64.6000     63.9502     202.828     2.49715     3.15862
     64.7000     34.6333     203.050     2.53911     3.13049
     64.8000     51.8728     202.928     2.59148     3.24353
     64.9000     61.6625     202.792     2.44894     3.22105
     65.0000     30.9096     202.763     2.45618     3.15089
     65.1000     45.2761     202.707     2.44184     3.18804
     65.2000     31.4463     202.745     2.45948     3.21091
     65.3000     33.7213     202.626     2.51197     3.18627
     65.4000     66.9401     202.765     2.42878     3.29318
     65.5000     28.0589     202.795     2.46385     3.18478
     65.6000     46.2534     202.714     2.57378     3.14084
     65.7000     46.9991     202.784     2.45395     3.23700
     65.8000     33.8311     202.665     2.58301     3.19734
     65.9000     73.9640     202.614     2.49701     3.21235
     66.0000     46.9966     202.663     2.43939     3.12938
     66.1000     27.6132     202.650     2.47473     3.19878
     66.2000     75.9436     202.740     2.38435     3.05686
     66.3000     100.576     202.689     2.42723     3.15724
     66.4000     65.2545     202.626     2.55352     3.22127
     66.5000     63.4282     202.652     2.61716     3.11996
     66.6000     105.704     202.952     2.38892     3.22692
     66.7000     27.8882     202.614     2.39492     3.18908
     66.8000     57.3164     202.626     2.45508     3.21194
     66.9000     45.8472     202.650     2.46913     3.15894
     67.0000     71.1189     202.626     2.47338     3.10536
     67.1000     53.9149     202.614     2.51405     3.25640
     67.2000     93.6789     202.567     2.43236     3.22858
     67.3000     86.9670     202.555     2.51500     3.21827
     67.4000     44.7816     202.792     2.41854     3.20083
     67.5000     71.0355     202.816     2.68360     3.23175
     67.6000     63.5727     202.614     2.44582     3.18175
     67.7000     89.6793     202.727     2.40282     3.11550
     67.8000     86.4391     202.727     2.46945     3.04275
     67.9000     50.6808     202.626     2.41420     3.23198
