#------------------------------------------------------------
~VERSION INFORMATION
VERS.               2.0  :CWLS LOG ASCII STANDARD - VERSION 2.0
WRAP.                NO  :ONE LINE PER DEPTH STEP
#------------------------------------------------------------
~WELL INFORMATION
STRT.M          2.00000  :FIRST INDEX VALUE
STOP.M          716.000  :LAST INDEX VALUE
STEP.M         0.100000  :STEP
NULL.            -99999  :NULL VALUE
COMP.                    :COMPANY
WELL.            OD021F  :WELL
FLD.        OLIVE DOWNS  :FIELD
LOC.          MORANBAH  :LOCATION
LATI.                    :LATITUDE
LONG.                    :LONGITUDE
GDAT.              R.T.  :GEODETIC DATUM
SRVC.        GAA WIRELINE  :SERVICE COMPANY
CTRY.                    :COUNTRY
PROV.        BOWEN BASIN  :PROVINCE
STAT.               QLD  :STATE
CNTY.                    :COUNTY
DATE.        27-OCT-2011  :LOG DATE
UWI.                    :UWI
API.                    :API NUMBER
LIC.                    :LICENSE NUMBER
#------------------------------------------------------------
~CURVE INFORMATION
DEPT.M                   :DEPTH
GR.API                 :GR
CALI.MM                  :Cali
LSD.G/CC                :LSD
SSD.G/CC                :SSD
#------------------------------------------------------------
~OTHER
#------------------------------------------------------------
~A   DEPT[M]     GR[API]    Cali[mm]    LSD[g/cc    SSD[g/cc
# ...
     556.400     70.5452     232.205     2.23724     2.36115
     556.500     68.1794     232.177     2.16693     2.38567
     556.600     62.7969     231.852     2.21332     2.26503
     556.700     58.1281     231.793     2.15361     2.32431
     556.800     89.8970     231.650     2.15813     2.35718
     556.900     51.8913     231.706     2.16825     2.31142
     557.000     59.5146     231.683     2.21328     2.30637
     557.100     71.5518     231.683     2.18885     2.34714
     557.200     61.1900     231.800     2.23513     2.34902
     557.300     49.2104     231.621     2.21981     2.35952
     557.400     64.4598     231.411     2.21448     2.34535
     557.500     30.0742     231.470     2.19669     2.36621
     557.600     46.3044     231.460     2.18481     2.31920
     557.700     72.0849     231.468     2.18727     2.33821
     557.800     81.4507     231.610     2.22863     2.36930
     557.900     51.3056     231.281     2.21845     2.32169
     558.000     29.3447     231.484     2.21938     2.39026
     558.100     54.7023     231.468     2.18661     2.36236
     558.200     39.7207     231.484     2.12283     2.35063
     558.300     79.6806     231.299     2.20590     2.32442
     558.400     69.2576     231.466     2.16109     2.34871
     558.500     55.4484     231.142     2.14014     2.41472
     558.600     64.4598     231.440     2.22950     2.32408
     558.700     65.5601     231.083     2.16010     2.34944
     558.800     49.2726     231.454     2.20172     2.35847
     558.900     48.8778     232.029     2.35549     2.33207
     559.000     26.4166     232.080     2.25129     2.37242
     559.100     35.8003     232.563     2.24527     2.40062
     559.200     25.7399     232.828     2.23244     2.43785
     559.300     38.3522     232.835     2.17781     2.38036
     559.400     20.2675     232.979     2.18661     2.35264
     559.500     45.8523     232.441     2.19078     2.35223
     559.600     51.7655     232.928     2.22964     2.32783
     559.700     60.3355     233.134     2.18488     2.32144
     559.800     29.6036     233.327     2.16319     2.25025
     559.900     45.6836     233.847     2.15343     2.33798
     560.000     36.5855     233.648     2.23052     2.33009
     560.100     84.8649     234.517     2.17603     2.34321
     560.200     69.1490     234.503     2.28007     2.33850
     560.300     36.8235     234.719     2.21862     2.39063
     560.400     59.0041     235.131     2.30016     2.37388
     560.500     67.3969     235.442     2.18981     2.33270
     560.600     60.7462     235.877     2.25256     2.34387
     560.700     49.7214     236.240     2.20035     2.39928
     560.800     42.9290     236.477     2.24431     2.34444
     560.900     80.3700     236.803     2.12231     2.35275
     561.000     32.6828     237.017     2.17516     2.33268
     561.100     42.4548     237.630     2.16559     2.35059
     561.200     61.7443     237.701     2.20975     2.36089
     561.300     41.3723     238.153     2.21525     2.33482
     561.400     70.3095     238.480     2.22104     2.39049
     561.500     36.2798     239.234     2.16683     2.36260
     561.600     35.4938     239.383     2.16825     2.33959
     561.700     75.3298     239.786     2.23334     2.34527
     561.800     42.7428     240.004     2.22557     2.32593
     561.900     53.0977     240.342     2.21259     2.34362
     562.000     55.6161     241.064     2.22264     2.34500
     562.100     35.4938     241.888     2.16224     2.35963
     562.200     55.0815     242.252     2.20052     2.38518
     562.300     45.9345     242.557     2.22938     2.35739
     562.400     62.7998     243.040     2.21340     2.38706
     562.500     48.7180     243.516     2.20659     2.36374
     562.600     78.3253     244.163     2.23036     2.36524
     562.700     59.4529     244.126     2.22771     2.37467
     562.800     53.1948     244.542     2.27080     2.34356
     562.900     67.1175     245.274     2.25150     2.37378
     563.000     38.8283     245.312     2.20419     2.39637
     563.100     61.0468     246.005     2.27330     2.40121
     563.200     75.7866     246.113     2.23535     2.43979
     563.300     55.6161     246.438     2.15436     2.38965
     563.400     27.6464     246.384     2.15541     2.37593
     563.500     55.8634     246.764     2.23469     2.37957
     563.600     97.6315     247.532     2.30094     2.36030
     563.700     49.4755     247.574     2.23015     2.39529
     563.800     62.1822     248.690     2.24249     2.31603
     563.900     71.3933     249.033     2.17360     2.34743
     564.000     59.7312     249.184     2.20458     2.29523
     564.100     76.4901     249.857     2.20085     2.27234
     564.200     78.4842     250.552     2.10675     2.27988
     564.300     69.5947     251.304     2.07978     2.15835
     564.400     122.586     251.429     2.13041     2.16053
     564.500     87.1883     252.078     2.10715     2.23829
     564.600     106.430     252.080     2.14023     2.27086
     564.700     151.223     252.883     2.15982     2.26627
     564.800     113.700     252.917     2.08841     2.19129
     564.900     104.480     254.022     2.12654     2.14107
     565.000     75.3091     254.585     2.15404     2.15796
     565.100     119.951     254.310     2.15572     2.22593
     565.200     98.8711     254.709     2.13719     2.25121
     565.300     159.435     255.267     2.12373     2.15503
     565.400     162.631     256.196     2.14180     2.02819
     565.500     107.839     257.264     2.06541     2.06666
     565.600     100.498     257.075     2.02177     2.07069
     565.700     79.2830     257.329     2.02523     2.09056
     565.800     134.991     257.550     2.09444     2.14370
     565.900     141.650     258.158     2.09146     2.11733
     566.000     170.376     258.338     2.14165     2.08236
     566.100     100.033     258.409     2.09255     2.19721
     566.200     88.4526     258.483     2.11629     2.19410
     566.300     103.212     258.909     2.08866     2.02007
     566.400     104.519     260.504     2.02912     2.00096
     566.500     78.6500     262.833     1.96495     1.98788
     566.600     82.8383     258.317     1.92731     1.96650
     566.700     115.763     257.607     1.88068     1.88814
     566.800     144.632     257.113     1.95355     1.73827
     566.900     134.136     258.072     1.97800     1.73416
     567.000     90.5676     263.356     2.03177     1.99070
     567.100     64.8430     281.701     1.96479     2.22433
     567.200     129.790     280.635     1.93008     2.06380
     567.300     71.0998     280.497     1.88758     1.68990
     567.400     81.7090     252.090     1.95860     1.61705
     567.500     58.5674     252.138     1.82027     1.94601
     567.600     116.221     251.756     1.83975     1.77715
     567.700     100.621     251.747     1.84950     1.74691
     567.800     123.435     251.626     1.88432     1.73340
     567.900     122.708     250.997     1.91454     1.87063
     568.000     93.2442     250.277     2.09154     2.03606
     568.100     64.8922     250.221     2.11016     2.24509
     568.200     75.0214     250.140     2.14349     2.35637
     568.300     75.1725     249.857     2.19758     2.36616
     568.400     69.9519     249.893     2.20945     2.34683
     568.500     92.2551     249.930     2.21479     2.30112
     568.600     108.490     249.852     2.17210     2.33875
     568.700     103.271     249.810     2.19029     2.32843
     568.800     72.2386     249.758     2.16018     2.25126
     568.900     102.138     249.592     2.19120     2.28008
     569.000     146.089     249.034     2.18512     2.27582
     569.100     118.172     249.097     2.15244     2.28384
     569.200     87.8925     249.125     2.19023     2.34551
     569.300     140.428     249.127     2.20453     2.33474
     569.400     51.6867     248.936     2.23037     2.33847
     569.500     95.4576     248.954     2.20530     2.37710
