#------------------------------------------------------------
~VERSION INFORMATION
VERS.               2.0  :CWLS LOG ASCII STANDARD - VERSION 2.0
WRAP.                NO  :ONE LINE PER DEPTH STEP
#------------------------------------------------------------
~WELL INFORMATION
STRT.M          2.00000  :FIRST INDEX VALUE
STOP.M          716.000  :LAST INDEX VALUE
STEP.M         0.100000  :STEP
NULL.            -99999  :NULL VALUE
COMP.                    :COMPANY
WELL.            OD021F  :WELL
FLD.        OLIVE DOWNS  :FIELD
LOC.          MORANBAH  :LOCATION
LATI.                    :LATITUDE
LONG.                    :LONGITUDE
GDAT.              R.T.  :GEODETIC DATUM
SRVC.        GAA WIRELINE  :SERVICE COMPANY
CTRY.                    :COUNTRY
PROV.        BOWEN BASIN  :PROVINCE
STAT.               QLD  :STATE
CNTY.                    :COUNTY
DATE.        27-OCT-2011  :LOG DATE
UWI.                    :UWI
API.                    :API NUMBER
LIC.                    :LICENSE NUMBER
#------------------------------------------------------------
~CURVE INFORMATION
DEPT.M                   :DEPTH
GR.API                 :GR
CALI.MM                  :Cali
LSD.G/CC                :LSD
SSD.G/CC                :SSD
#------------------------------------------------------------
~OTHER
#------------------------------------------------------------
~A   DEPT[M]     GR[API]    Cali[mm]    LSD[g/cc    SSD[g/cc
# ...
     609.200     32.1152     225.560     2.25067     2.41998
     609.300     87.2582     225.331     2.28492     2.48550
     609.400     79.8106     225.391     2.23773     2.46324
     609.500     74.2097     227.049     2.26416     2.39644
     609.600     65.0413     226.781     2.22366     2.39310
     609.700     63.4561     226.563     2.25346     2.41025
     609.800     55.8460     226.486     2.21968     2.39493
     609.900     72.0091     226.719     2.19489     2.38471
     610.000     83.8862     226.995     2.18364     2.37036
     610.100     85.5815     226.992     2.28516     2.35959
     610.200     58.8153     226.877     2.20189     2.39192
     610.300     64.7900     227.051     2.19476     2.36054
     610.400     49.4055     227.051     2.15325     2.36241
     610.500     78.2989     227.169     2.25551     2.36088
     610.600     60.3101     226.739     2.18528     2.37247
     610.700     50.9211     226.855     2.30107     2.38239
     610.800     57.6653     227.155     2.25977     2.31684
     610.900     38.9269     226.992     2.25009     2.35134
     611.000     62.7404     226.877     2.21601     2.40994
     611.100     58.1080     226.739     2.22888     2.35992
     611.200     62.7017     226.880     2.24781     2.32786
     611.300     74.0961     227.134     2.21396     2.39525
     611.400     38.0566     226.854     2.25833     2.33999
     611.500     75.0403     227.072     2.29253     2.40789
     611.600     88.2502     227.312     2.20010     2.39406
     611.700     22.4006     227.382     2.20465     2.42494
     611.800     71.4552     227.604     2.21536     2.37859
     611.900     55.7671     227.297     2.14740     2.37708
     612.000     72.2539     227.539     2.22603     2.35754
     612.100     72.5687     227.968     2.25119     2.34403
     612.200     78.4223     228.148     2.17799     2.36197
     612.300     46.8507     228.538     2.23582     2.36090
     612.400     59.3315     228.777     2.26205     2.37889
     612.500     81.2125     228.905     2.17808     2.40766
     612.600     67.7923     228.561     2.21626     2.38579
     612.700     89.3422     229.166     2.25110     2.43929
     612.800     62.2748     228.880     2.23037     2.39644
     612.900     57.0230     229.299     2.27769     2.34393
     613.000     87.6025     229.571     2.18535     2.35173
     613.100     60.1235     229.411     2.17772     2.38542
     613.200     44.6509     229.406     2.23954     2.40008
     613.300     95.9758     229.284     2.25887     2.40664
     613.400     83.9808     229.415     2.23565     2.37412
     613.500     56.7512     229.444     2.28750     2.38635
     613.600     59.0439     229.387     2.27886     2.41789
     613.700     57.0351     229.599     2.22931     2.44254
     613.800     29.1857     229.922     2.24858     2.45162
     613.900     35.0329     229.781     2.35344     2.44440
     614.000     47.3360     230.095     2.29961     2.48867
     614.100     31.5515     229.781     2.21427     2.44387
     614.200     49.3155     229.944     2.23809     2.42825
     614.300     59.0399     229.777     2.25335     2.40785
     614.400     52.7558     229.640     2.24086     2.48022
     614.500     35.4255     230.522     2.32667     2.45943
     614.600     41.2163     230.522     2.30707     2.38068
     614.700     37.6731     231.018     2.23332     2.45789
     614.800     29.2857     231.481     2.15624     2.22327
     614.900     60.9371     231.415     2.00711     2.04590
     615.000     66.5730     230.864     1.89561     1.84113
     615.100     31.4569     246.064     1.74807     1.60662
     615.200     40.8052     309.143     1.67839     1.39752
     615.300     35.2553     240.718     1.76115     1.51830
     615.400     25.3262     230.839     1.87401     1.95390
     615.500     115.577     230.685     2.01742     2.17587
     615.600     80.1391     230.709     2.18222     2.29658
     615.700     88.5061     230.653     2.19011     2.38104
     615.800     137.660     230.558     2.19373     2.31169
     615.900     98.2746     230.557     2.19468     2.33134
     616.000     44.2520     230.808     2.33933     2.31018
     616.100     94.0335     230.709     2.20299     2.37634
     616.200     75.4939     230.653     2.29080     2.40570
     616.300     75.4040     230.530     2.17448     2.38112
     616.400     106.794     230.549     2.35093     2.40998
     616.500     73.1421     230.682     2.27052     2.37505
     616.600     79.3067     230.371     2.22219     2.38125
     616.700     53.5907     230.502     2.28655     2.35170
     616.800     57.3071     230.502     2.29189     2.39914
     616.900     83.6760     230.397     2.24318     2.42360
     617.000     49.8009     230.370     2.28090     2.47176
     617.100     54.0637     230.370     2.27281     2.47790
     617.200     50.7479     230.654     2.20754     2.41569
     617.300     37.5253     230.489     2.16920     2.31145
     617.400     45.7862     230.241     2.30604     2.34910
     617.500     47.3716     230.143     2.25128     2.50726
     617.600     46.3370     230.349     2.23962     2.50868
     617.700     75.1359     231.650     2.19192     2.37538
     617.800     40.1093     232.538     2.11829     2.32302
     617.900     33.2131     233.114     2.03384     2.05706
     618.000     47.7045     233.408     1.83662     1.86575
     618.100     28.6624     234.223     1.70341     1.53984
     618.200     19.4322     233.910     1.47365     1.29526
     618.300     56.9053     244.107     1.34667     1.21522
     618.400     84.1287     272.192     1.46829     1.19506
     618.500     71.1563     321.371     1.63177     1.54602
     618.600     78.0698     224.654     1.81055     1.81782
     618.700     78.8746     222.791     1.97156     2.09874
     618.800     86.8546     222.735     2.03367     2.16813
     618.900     74.1505     222.362     2.11943     2.22807
     619.000     56.0233     222.422     2.18739     2.27019
     619.100     87.4055     221.853     2.14959     2.30716
     619.200     99.9841     221.821     2.18233     2.30997
     619.300     107.769     221.829     2.18496     2.37991
     619.400     95.9578     221.383     2.21102     2.28827
     619.500     95.4307     221.318     2.21866     2.36521
     619.600     81.3457     221.268     2.23353     2.27893
     619.700     62.4639     220.878     2.19567     2.29709
     619.800     95.3973     220.777     2.23005     2.33279
     619.900     78.0598     220.528     2.18137     2.30399
     620.000     76.8058     220.216     2.21497     2.33137
     620.100     59.8894     220.194     2.21631     2.31359
     620.200     84.6953     220.361     2.24291     2.29469
     620.300     62.6285     220.158     2.17628     2.31359
     620.400     62.1654     220.199     2.21574     2.37467
     620.500     71.7619     220.110     2.24436     2.39919
     620.600     58.8153     220.046     2.24682     2.37912
     620.700     75.1928     220.149     2.20767     2.31208
     620.800     57.4444     219.751     2.24045     2.29866
     620.900     44.4029     219.369     2.27631     2.31551
     621.000     85.0683     219.031     2.17989     2.34549
     621.100     56.7471     219.116     2.22681     2.34980
     621.200     76.8359     218.669     2.21795     2.32773
     621.300     67.4921     218.895     2.25698     2.33836
     621.400     65.4126     218.767     2.12942     2.34288
     621.500     50.5562     218.710     2.16280     2.39087
     621.600     54.5420     218.638     2.24130     2.33020
     621.700     85.9217     218.616     2.25943     2.35661
     621.800     47.1295     218.296     2.23796     2.35728
     621.900     53.8296     218.023     2.27630     2.37287
     622.000     51.4886     217.967     2.21446     2.30767
     622.100     45.4525     217.847     2.22969     2.37427
     622.200     27.9349     217.821     2.16314     2.38874
     622.300     75.8846     217.563     2.28516     2.40579
