#------------------------------------------------------------
~VERSION INFORMATION
VERS.               2.0  :CWLS LOG ASCII STANDARD - VERSION 2.0
WRAP.                NO  :ONE LINE PER DEPTH STEP
#------------------------------------------------------------
~WELL INFORMATION
STRT.M          2.00000  :FIRST INDEX VALUE
STOP.M          716.000  :LAST INDEX VALUE
STEP.M         0.100000  :STEP
NULL.            -99999  :NULL VALUE
COMP.                    :COMPANY
WELL.            OD021F  :WELL
FLD.        OLIVE DOWNS  :FIELD
LOC.          MORANBAH  :LOCATION
LATI.                    :LATITUDE
LONG.                    :LONGITUDE
GDAT.              R.T.  :GEODETIC DATUM
SRVC.        GAA WIRELINE  :SERVICE COMPANY
CTRY.                    :COUNTRY
PROV.        BOWEN BASIN  :PROVINCE
STAT.               QLD  :STATE
CNTY.                    :COUNTY
DATE.        27-OCT-2011  :LOG DATE
UWI.                    :UWI
API.                    :API NUMBER
LIC.                    :LICENSE NUMBER
#------------------------------------------------------------
~CURVE INFORMATION
DEPT.M                   :DEPTH
GR.API                 :GR
CALI.MM                  :Cali
LSD.G/CC                :LSD
SSD.G/CC                :SSD
#------------------------------------------------------------
~OTHER
#------------------------------------------------------------
~A   DEPT[M]     GR[API]    Cali[mm]    LSD[g/cc    SSD[g/cc
# ...
     332.000     93.0054     220.588     2.24798     2.45770
     332.100     78.7236     220.176     2.17541     2.43983
     332.200     62.3587     219.949     2.20244     2.33790
     332.300     58.3342     220.182     2.25638     2.36526
     332.400     82.6854     219.869     2.22943     2.37697
     332.500     48.7020     219.918     2.19210     2.41598
     332.600     62.0650     219.958     2.22632     2.42721
     332.700     75.9672     219.949     2.26450     2.43647
     332.800     39.1544     220.060     2.27211     2.42208
     332.900     53.8594     220.069     2.22497     2.45007
     333.000     38.7511     220.014     2.19989     2.45534
     333.100     55.8071     220.108     2.18915     2.37354
     333.200     41.4959     220.210     2.20958     2.42694
     333.300     41.9617     219.872     2.21249     2.43207
     333.400     130.516     220.082     2.18475     2.41079
     333.500     45.1608     219.970     2.29240     2.38998
     333.600     39.9202     219.898     2.27172     2.42773
     333.700     75.9803     219.804     2.26557     2.43130
     333.800     50.0586     220.194     2.26393     2.38984
     333.900     104.254     219.958     2.22984     2.39472
     334.000     87.9046     220.267     2.25959     2.39221
     334.100     86.0119     219.967     2.27106     2.37552
     334.200     93.2527     219.967     2.22971     2.41118
     334.300     54.5884     220.186     2.24353     2.42567
     334.400     80.1278     220.067     2.27594     2.37453
     334.500     89.6018     219.987     2.26619     2.34230
     334.600     87.3807     220.203     2.39134     2.42615
     334.700     98.8072     219.799     2.26579     2.41027
     334.800     86.3822     219.796     2.26360     2.36746
     334.900     71.7902     219.837     2.19397     2.39699
     335.000     63.4242     219.903     2.23583     2.38682
     335.100     56.4949     219.949     2.20850     2.36937
     335.200     88.2514     220.031     2.24495     2.44855
     335.300     46.0716     219.967     2.19010     2.33012
     335.400     58.2722     220.032     2.26219     2.43740
     335.500     74.4174     220.201     2.29472     2.41813
     335.600     78.8935     220.255     2.21248     2.35527
     335.700     82.5082     220.245     2.20693     2.45006
     335.800     87.8752     220.301     2.21299     2.37357
     335.900     99.7894     220.291     2.22310     2.42395
     336.000     111.450     220.367     2.27602     2.38019
     336.100     81.1707     220.344     2.21144     2.40116
     336.200     67.0748     220.030     2.23461     2.34407
     336.300     78.0921     220.453     2.29017     2.41730
     336.400     102.785     220.367     2.25921     2.47744
     336.500     85.6645     220.331     2.23739     2.47069
     336.600     62.1721     220.330     2.21280     2.42744
     336.700     76.1530     219.988     2.20093     2.37443
     336.800     55.7520     220.320     2.18859     2.40906
     336.900     71.2869     220.331     2.18244     2.37617
     337.000     90.7293     220.265     2.21554     2.36102
     337.100     96.3286     220.446     2.19371     2.34395
     337.200     99.5912     220.299     2.32028     2.42102
     337.300     82.7620     220.325     2.30551     2.43837
     337.400     42.8654     220.375     2.22742     2.40360
     337.500     83.1380     220.305     2.26211     2.37928
     337.600     92.4277     220.321     2.19460     2.39729
     337.700     85.3829     220.199     2.22759     2.34300
     337.800     74.2372     220.020     2.24779     2.32540
     337.900     66.7182     220.021     2.21749     2.35979
     338.000     139.267     219.977     2.16427     2.35535
     338.100     84.9530     220.031     2.23841     2.34460
     338.200     92.1011     219.958     2.20655     2.39889
     338.300     55.5173     219.739     2.17469     2.38598
     338.400     74.9729     219.340     2.21824     2.37787
     338.500     95.5595     219.041     2.34173     2.43152
     338.600     59.3597     219.035     2.34844     2.38165
     338.700     107.788     218.902     2.28308     2.37319
     338.800     56.5586     219.069     2.22867     2.44018
     338.900     86.0724     218.688     2.22232     2.43468
     339.000     95.5262     219.100     2.27170     2.38412
     339.100     64.5033     219.069     2.17645     2.35566
     339.200     72.3825     218.980     2.30176     2.36826
     339.300     116.704     218.902     2.19655     2.36595
     339.400     71.2233     219.322     2.25563     2.38385
     339.500     78.1818     219.010     2.27730     2.43179
     339.600     57.5570     219.383     2.16911     2.44152
     339.700     83.8240     219.429     2.22533     2.38814
     339.800     89.7678     219.224     2.21729     2.36561
     339.900     70.7429     219.224     2.25398     2.40142
     340.000     91.9099     219.043     2.17307     2.40969
     340.100     148.667     219.147     2.26147     2.36241
     340.200     96.8039     219.048     2.27215     2.31793
     340.300     39.1743     219.035     2.25819     2.42776
     340.400     74.9800     219.532     2.30696     2.37725
     340.500     87.8095     219.270     2.30344     2.36099
     340.600     117.635     219.092     2.27629     2.29157
     340.700     31.0113     219.484     2.25457     2.41055
     340.800     69.3854     219.234     2.13814     2.35153
     340.900     133.075     219.179     2.21729     2.35668
     341.000     65.3891     219.100     2.20069     2.37895
     341.100     68.9772     219.021     2.24064     2.37849
     341.200     89.7678     219.039     2.18612     2.44989
     341.300     76.4074     219.131     2.27943     2.43573
     341.400     58.6546     219.232     2.25903     2.41683
     341.500     68.9703     219.213     2.23355     2.44058
     341.600     61.9063     219.142     2.22761     2.32942
     341.700     79.4288     219.128     2.24417     2.41313
     341.800     48.9531     219.445     2.28019     2.44738
     341.900     66.5858     219.183     2.20462     2.48719
     342.000     70.0753     219.069     2.25565     2.42750
     342.100     42.5816     219.035     2.16436     2.47076
     342.200     91.4637     219.174     2.32203     2.38560
     342.300     44.5977     219.139     2.25257     2.42968
     342.400     54.0597     219.179     2.28909     2.35872
     342.500     129.708     219.127     2.28711     2.33204
     342.600     111.331     219.484     2.22050     2.41766
     342.700     69.3478     219.171     2.25894     2.34920
     342.800     66.3001     219.077     2.14843     2.42683
     342.900     52.9734     219.035     2.17142     2.39618
     343.000     82.9753     219.084     2.24645     2.34649
     343.100     95.9471     219.077     2.24766     2.34711
     343.200     52.4837     219.135     2.19613     2.35279
     343.300     76.4201     219.120     2.23423     2.38233
     343.400     38.1167     219.077     2.32482     2.39043
     343.500     45.4988     219.070     2.24898     2.35655
     343.600     62.9076     219.092     2.23613     2.35299
     343.700     51.6090     219.294     2.28890     2.32749
     343.800     65.7854     218.955     2.24467     2.37200
     343.900     35.6497     219.123     2.26028     2.39029
     344.000     62.1566     219.062     2.15937     2.31311
     344.100     54.5825     219.089     2.19130     2.32467
     344.200     55.5950     219.062     2.22269     2.30543
     344.300     35.1718     218.980     2.20707     2.34453
     344.400     59.1778     219.367     2.22574     2.37030
     344.500     63.0858     218.725     2.22012     2.40368
     344.600     59.1696     218.987     2.20620     2.40613
     344.700     53.4591     218.673     2.28999     2.43088
     344.800     37.0923     218.576     2.23807     2.43833
     344.900     48.9215     218.925     2.17659     2.44467
     345.000     40.7479     219.374     2.30173     2.41515
     345.100     61.3939     219.426     2.24240     2.41262
