#------------------------------------------------------------
~VERSION INFORMATION
VERS.               2.0  :CWLS LOG ASCII STANDARD - VERSION 2.0
WRAP.                NO  :ONE LINE PER DEPTH STEP
#------------------------------------------------------------
~WELL INFORMATION
STRT.M          2.00000  :FIRST INDEX VALUE
STOP.M          716.000  :LAST INDEX VALUE
STEP.M         0.100000  :STEP
NULL.            -99999  :NULL VALUE
COMP.                    :COMPANY
WELL.            OD021F  :WELL
FLD.        OLIVE DOWNS  :FIELD
LOC.          MORANBAH  :LOCATION
LATI.                    :LATITUDE
LONG.                    :LONGITUDE
GDAT.              R.T.  :GEODETIC DATUM
SRVC.        GAA WIRELINE  :SERVICE COMPANY
CTRY.                    :COUNTRY
PROV.        BOWEN BASIN  :PROVINCE
STAT.               QLD  :STATE
CNTY.                    :COUNTY
DATE.        27-OCT-2011  :LOG DATE
UWI.                    :UWI
API.                    :API NUMBER
LIC.                    :LICENSE NUMBER
#------------------------------------------------------------
~CURVE INFORMATION
DEPT.M                   :DEPTH
GR.API                 :GR
CALI.MM                  :Cali
LSD.G/CC                :LSD
SSD.G/CC                :SSD
#------------------------------------------------------------
~OTHER
#------------------------------------------------------------
~A   DEPT[M]     GR[API]    Cali[mm]    LSD[g/cc    SSD[g/cc
# ...
     94.4000     89.3919     202.544     2.39244     2.88370
     94.5000     59.2478     202.809     2.36413     2.85400
     94.6000     49.2775     202.579     2.36687     2.82180
     94.7000     49.2210     202.678     2.33165     2.87797
     94.8000     42.5963     202.713     2.45163     2.87396
     94.9000     75.5230     203.015     2.33775     2.90828
     95.0000     62.9570     202.873     2.41500     2.90336
     95.1000     79.2663     202.960     2.35279     2.85148
     95.2000     47.7528     202.643     2.34144     2.93993
     95.3000     54.1916     202.702     2.42581     2.89815
     95.4000     93.5474     202.689     2.28430     2.92386
     95.5000     68.0066     202.856     2.37574     2.88677
     95.6000     64.4186     202.678     2.30891     2.85949
     95.7000     68.9936     202.417     2.34087     2.89385
     95.8000     80.5339     202.654     2.30805     2.92550
     95.9000     46.6499     202.678     2.43124     2.93009
     96.0000     82.5414     202.809     2.33277     2.85228
     96.1000     93.8942     202.678     2.30856     2.90383
     96.2000     63.1964     202.702     2.28926     2.91527
     96.3000     69.9614     202.927     2.38982     2.81409
     96.4000     36.3627     202.849     2.38792     2.86015
     96.5000     87.7822     202.873     2.33312     2.88983
     96.6000     60.9297     202.897     2.28117     2.86907
     96.7000     61.7982     202.980     2.31837     2.85670
     96.8000     47.7516     202.908     2.38868     2.90030
     96.9000     76.4268     202.740     2.37765     2.89532
     97.0000     52.5916     202.821     2.35629     2.90555
     97.1000     66.0115     202.631     2.33508     2.87618
     97.2000     79.7103     202.695     2.33441     2.87919
     97.3000     85.4572     202.696     2.28878     2.87095
     97.4000     50.0740     202.667     2.29226     2.92298
     97.5000     50.3403     202.641     2.32571     2.93798
     97.6000     51.7237     202.669     2.43086     2.88082
     97.7000     84.4990     202.685     2.33125     2.96546
     97.8000     59.7373     202.544     2.40082     2.88761
     97.9000     60.6948     202.825     2.40835     2.87275
     98.0000     73.4630     202.644     2.32972     2.95001
     98.1000     104.792     202.903     2.40032     2.95600
     98.2000     95.9484     202.702     2.42025     2.94997
     98.3000     31.4571     202.970     2.31095     2.96027
     98.4000     82.2645     202.579     2.34794     2.95340
     98.5000     75.2547     202.716     2.45690     2.90202
     98.6000     55.4484     202.654     2.51853     2.91027
     98.7000     55.6824     202.775     2.33488     2.92369
     98.8000     56.1657     202.897     2.43242     2.89069
     98.9000     50.0056     202.785     2.37285     2.92641
     99.0000     62.1342     202.678     2.39662     3.03902
     99.1000     97.9433     202.714     2.35659     2.98031
     99.2000     47.1976     202.533     2.48175     3.07115
     99.3000     42.3683     202.980     2.42797     2.94684
     99.4000     87.1303     202.844     2.43612     2.99551
     99.5000     49.7718     202.638     2.51363     2.99164
     99.6000     82.1357     202.736     2.31549     2.96276
     99.7000     79.1424     202.689     2.46650     2.95177
     99.8000     71.1189     202.775     2.37912     2.96898
     99.9000     99.5914     202.833     2.33254     2.98903
     100.000    -99999.0     202.871     2.35101     2.94141
     100.100     59.9876     202.828     2.33389     2.96123
     100.200     43.8768     202.700     2.38652     2.92671
     100.300     43.5000     202.791     2.39819     3.01770
     100.400     54.8414     202.840     2.36588     3.04402
     100.500     58.2403     202.557     2.44752     2.92510
     100.600     67.2611     202.766     2.37300     3.03909
     100.700     70.3727     202.700     2.40891     3.01541
     100.800     67.1739     202.798     2.51828     3.01632
     100.900     70.4124     202.871     2.37814     2.99562
     101.000     53.8685     202.663     2.39483     3.01716
     101.100     67.5177     202.725     2.32094     2.99487
     101.200     41.5672     202.828     2.46061     3.03698
     101.300     66.7152     202.747     2.47152     2.98442
     101.400     48.4910     202.871     2.45375     3.02925
     101.500     104.118     202.720     2.45070     2.98258
     101.600     58.5725     202.830     2.38724     3.02541
     101.700     40.5977     202.624     2.44781     3.07539
     101.800     49.6178     202.871     2.41798     2.96999
     101.900     51.5139     202.777     2.48824     3.02887
     102.000     72.3525     202.688     2.40997     3.06964
     102.100     39.2557     202.852     2.33378     3.00426
     102.200     54.1295     203.060     2.40145     3.04084
     102.300     33.3065     202.619     2.44484     3.06709
     102.400     51.3530     202.740     2.53971     3.03353
     102.500     47.6440     202.775     2.48464     3.05922
     102.600     35.6655     202.885     2.35870     3.04297
     102.700     77.4236     202.751     2.47676     3.05037
     102.800     92.8893     202.937     2.39056     3.05614
     102.900     74.9465     202.771     2.47026     3.01490
     103.000     75.1869     202.643     2.44283     3.02110
     103.100     54.9171     202.678     2.40311     3.02305
     103.200     78.1329     202.737     2.42640     3.02146
     103.300     53.3965     202.760     2.45622     3.07327
     103.400     55.7281     202.856     2.44861     2.96581
     103.500     85.2881     202.993     2.50592     2.97167
     103.600     59.1828     202.643     2.37660     3.02753
     103.700     87.9007     202.678     2.34633     3.05452
     103.800     72.5325     202.927     2.30650     3.04074
     103.900     49.3953     202.757     2.43038     3.06898
     104.000     67.7003     202.666     2.35814     3.03428
     104.100     38.9949     202.576     2.45102     3.06463
     104.200     68.4862     202.654     2.41172     2.99856
     104.300     60.8447     202.599     2.55553     3.05647
     104.400     44.3309     202.822     2.47090     3.02721
     104.500     57.6811     202.702     2.43478     2.99913
     104.600     60.5625     202.809     2.38013     3.00125
     104.700     43.9558     202.689     2.45219     3.07164
     104.800     34.8098     202.737     2.37908     3.05984
     104.900     38.8220     202.714     2.37004     3.05722
     105.000     53.9596     202.626     2.50413     2.94485
     105.100     38.5601     202.604     2.44405     3.06223
     105.200     35.6781     202.626     2.56954     3.08592
     105.300     73.6209     202.682     2.44425     3.16111
     105.400     55.5538     202.645     2.41599     3.15837
     105.500     61.8167     202.611     2.44459     3.09425
     105.600     29.8331     202.688     2.41724     3.07400
     105.700     62.7318     202.655     2.38080     3.05200
     105.800     39.1287     202.554     2.47269     3.00272
     105.900     49.7811     202.820     2.44855     3.03799
     106.000     57.3479     202.856     2.36754     3.12089
     106.100     68.1675     202.682     2.41508     3.00700
     106.200     48.4947     202.462     2.37575     3.07735
     106.300     58.7056     202.737     2.32429     3.04360
     106.400     27.0683     202.707     2.41505     3.04155
     106.500     75.6925     202.790     2.48354     3.06105
     106.600     54.0905     202.703     2.37404     3.00159
     106.700     95.7838     202.747     2.37838     3.04608
     106.800     71.5807     202.877     2.45849     2.97743
     106.900     73.4352     202.882     2.51885     3.04192
     107.000     86.3603     202.605     2.36567     3.11643
     107.100     50.7863     202.713     2.47853     3.04069
     107.200     60.4352     202.887     2.47754     3.17413
     107.300     83.4915     202.703     2.43541     3.26828
     107.400     47.0438     202.584     2.46525     3.25242
     107.500     44.7588     202.747     2.49032     3.36943
