#------------------------------------------------------------
~VERSION INFORMATION
VERS.               2.0  :CWLS LOG ASCII STANDARD - VERSION 2.0
WRAP.                NO  :ONE LINE PER DEPTH STEP
#------------------------------------------------------------
~WELL INFORMATION
STRT.M          2.00000  :FIRST INDEX VALUE
STOP.M          716.000  :LAST INDEX VALUE
STEP.M         0.100000  :STEP
NULL.            -99999  :NULL VALUE
COMP.                    :COMPANY
WELL.            OD021F  :WELL
FLD.        OLIVE DOWNS  :FIELD
LOC.          MORANBAH  :LOCATION
LATI.                    :LATITUDE
LONG.                    :LONGITUDE
GDAT.              R.T.  :GEODETIC DATUM
SRVC.        GAA WIRELINE  :SERVICE COMPANY
CTRY.                    :COUNTRY
PROV.        BOWEN BASIN  :PROVINCE
STAT.               QLD  :STATE
CNTY.                    :COUNTY
DATE.        27-OCT-2011  :LOG DATE
UWI.                    :UWI
API.                    :API NUMBER
LIC.                    :LICENSE NUMBER
#------------------------------------------------------------
~CURVE INFORMATION
DEPT.M                   :DEPTH
GR.API                 :GR
CALI.MM                  :Cali
LSD.G/CC                :LSD
SSD.G/CC                :SSD
#------------------------------------------------------------
~OTHER
#------------------------------------------------------------
~A   DEPT[M]     GR[API]    Cali[mm]    LSD[g/cc    SSD[g/cc
# ...
     371.600     110.231     215.286     2.20252     2.39048
     371.700     44.5977     215.002     2.36536     2.42290
     371.800     128.314     215.286     2.25765     2.44284
     371.900     85.0088     215.679     2.27270     2.42463
     372.000     86.0531     215.407     2.28017     2.42430
     372.100     87.7206     215.689     2.24621     2.41486
     372.200     95.8775     215.346     2.25027     2.41909
     372.300     99.2278     215.407     2.26570     2.38624
     372.400     100.292     215.346     2.23618     2.42905
     372.500     75.9651     215.407     2.32872     2.45005
     372.600     69.2605     215.406     2.21003     2.44143
     372.700     74.2968     215.689     2.19798     2.37441
     372.800     39.6150     215.346     2.28100     2.42952
     372.900     55.0159     215.409     2.25719     2.38331
     373.000     81.9357     215.346     2.27066     2.35598
     373.100     71.2476     215.346     2.19969     2.35071
     373.200     99.5072     215.346     2.15735     2.33903
     373.300     93.5644     214.972     2.21117     2.33316
     373.400     115.599     215.174     2.28006     2.37503
     373.500     140.891     215.111     2.22534     2.39431
     373.600     109.590     215.000     2.25568     2.42126
     373.700     115.981     214.945     2.22339     2.40573
     373.800     120.767     214.998     2.25607     2.45060
     373.900     75.9019     214.999     2.29308     2.40401
     374.000     147.851     215.003     2.24417     2.42253
     374.100     113.884     214.936     2.24967     2.33995
     374.200     134.437     215.002     2.19909     2.35825
     374.300     145.110     214.943     2.20920     2.35366
     374.400     85.0752     215.284     2.34118     2.38164
     374.500     94.6833     215.285     2.14809     2.44210
     374.600     120.377     215.007     2.21582     2.33241
     374.700     81.6275     214.936     2.27224     2.34082
     374.800     78.6836     215.284     2.20349     2.37254
     374.900     83.1683     215.282     2.18714     2.35947
     375.000     66.0465     215.282     2.25092     2.33972
     375.100     56.5178     214.942     2.17442     2.36497
     375.200     69.0260     214.948     2.28575     2.35946
     375.300     82.6374     214.937     2.13846     2.34246
     375.400     91.0743     215.283     2.15076     2.38368
     375.500     101.760     214.943     2.27869     2.43143
     375.600     103.644     214.941     2.25895     2.48947
     375.700     84.6442     214.941     2.29213     2.51918
     375.800     47.5731     214.940     2.27504     2.50666
     375.900     66.7232     214.940     2.32249     2.40007
     376.000     101.955     214.943     2.29136     2.36791
     376.100     66.0449     214.884     2.19096     2.35303
     376.200     101.751     214.875     2.29631     2.45710
     376.300     99.2552     214.936     2.37510     2.45957
     376.400     67.9583     214.880     2.28573     2.38671
     376.500     105.171     214.943     2.22304     2.33402
     376.600     91.0890     215.283     2.19747     2.33792
     376.700     117.167     215.285     2.27879     2.38209
     376.800     91.2846     215.346     2.25590     2.38175
     376.900     80.1349     215.346     2.20592     2.38289
     377.000     31.9784     215.315     2.25303     2.37660
     377.100     111.343     215.316     2.27632     2.42603
     377.200     60.5253     215.315     2.34100     2.40424
     377.300     105.884     214.977     2.27673     2.49314
     377.400     61.7458     215.174     2.27757     2.37926
     377.500     76.3385     215.172     2.33424     2.43053
     377.600     73.7455     215.172     2.28764     2.46457
     377.700     67.7632     215.172     2.25332     2.44518
     377.800     75.6344     215.346     2.25726     2.38887
     377.900     90.3715     215.003     2.25948     2.36760
     378.000     101.760     215.286     2.25039     2.38925
     378.100     58.0336     214.998     2.26683     2.44814
     378.200     83.6865     215.346     2.26857     2.40639
     378.300     55.2455     215.408     2.24127     2.39425
     378.400     73.6323     215.688     2.27324     2.43934
     378.500     63.2243     215.810     2.12263     2.44975
     378.600     86.6316     216.498     2.27277     2.43756
     378.700     68.5293     216.483     2.20101     2.47191
     378.800     95.3911     216.896     2.07557     2.26798
     378.900     26.9802     216.976     1.89365     1.88582
     379.000     40.2461     216.570     1.66085     1.41929
     379.100     33.7429     216.568     1.44249     1.31490
     379.200     27.9118     216.634     1.49259     1.30835
     379.300     34.8159     216.575     1.69693     1.52889
     379.400     42.1972     216.573     1.86251     1.97808
     379.500     83.6106     216.557     2.06655     2.21011
     379.600     73.1433     216.211     2.12123     2.18914
     379.700     58.7850     216.198     2.16660     2.22341
     379.800     52.2283     216.497     2.09402     2.25365
     379.900     54.0597     216.206     2.14355     2.18808
     380.000     79.2860     216.146     2.10437     2.19685
     380.100     71.4305     216.144     2.16960     2.26352
     380.200     90.4240     216.164     2.23176     2.29104
     380.300     121.280     216.162     2.25400     2.25150
     380.400     109.688     216.092     2.25731     2.33284
     380.500     59.0645     216.141     2.31491     2.27151
     380.600     37.3626     216.141     2.26133     2.32341
     380.700     107.307     216.150     2.18435     2.28867
     380.800     70.5081     216.144     2.24551     2.34359
     380.900     104.597     215.807     2.17978     2.31092
     381.000     52.5933     216.121     2.17411     2.25492
     381.100     82.0737     215.785     2.19597     2.33006
     381.200     81.6275     215.759     2.29302     2.38352
     381.300     115.317     215.754     2.19669     2.30239
     381.400     86.5664     215.980     2.18847     2.32367
     381.500     100.349     216.368     2.22961     2.31469
     381.600     47.1803     216.779     2.23962     2.35913
     381.700     62.2442     217.121     2.24006     2.30646
     381.800     102.149     217.369     2.24847     2.38436
     381.900     52.1952     217.303     2.13005     2.45954
     382.000     82.7794     217.383     1.99399     2.04730
     382.100     100.657     226.855     1.90270     1.63693
     382.200     45.3199     216.084     1.97555     1.83098
     382.300     86.7572     216.075     2.04483     2.19868
     382.400     41.0901     216.081     2.08898     2.28418
     382.500     51.6178     215.808     2.15341     2.32704
     382.600     78.9225     216.102     2.24534     2.24231
     382.700     100.037     216.102     2.14948     2.26070
     382.800     107.653     215.750     2.14580     2.30860
     382.900     59.7347     216.100     2.17648     2.32144
     383.000     83.1896     215.755     2.22171     2.33481
     383.100     51.5945     216.085     2.25720     2.31967
     383.200     97.1324     216.084     2.18924     2.31633
     383.300     69.6781     215.749     2.11827     2.31800
     383.400     67.3069     215.407     2.17298     2.34591
     383.500     64.9640     215.688     2.28936     2.37781
     383.600     77.9098     215.745     2.18243     2.31308
     383.700     100.037     215.404     2.25043     2.33684
     383.800     69.7782     215.689     2.19572     2.39513
     383.900     69.6498     215.751     2.23306     2.30990
     384.000     41.9268     216.143     2.27625     2.33378
     384.100     69.1822     216.467     2.23862     2.29839
     384.200     75.1435     216.483     2.19828     2.32806
     384.300     82.2119     216.604     2.22227     2.30262
     384.400     46.7947     216.917     2.22127     2.40708
     384.500     89.4159     216.619     2.20326     2.44299
     384.600     82.4211     216.682     2.18898     2.37196
     384.700     65.5704     217.304     2.17805     2.37747
