#------------------------------------------------------------
~VERSION INFORMATION
VERS.               2.0  :CWLS LOG ASCII STANDARD - VERSION 2.0
WRAP.                NO  :ONE LINE PER DEPTH STEP
#------------------------------------------------------------
~WELL INFORMATION
STRT.M          2.00000  :FIRST INDEX VALUE
STOP.M          716.000  :LAST INDEX VALUE
STEP.M         0.100000  :STEP
NULL.            -99999  :NULL VALUE
COMP.                    :COMPANY
WELL.            OD021F  :WELL
FLD.        OLIVE DOWNS  :FIELD
LOC.          MORANBAH  :LOCATION
LATI.                    :LATITUDE
LONG.                    :LONGITUDE
GDAT.              R.T.  :GEODETIC DATUM
SRVC.        GAA WIRELINE  :SERVICE COMPANY
CTRY.                    :COUNTRY
PROV.        BOWEN BASIN  :PROVINCE
STAT.               QLD  :STATE
CNTY.                    :COUNTY
DATE.        27-OCT-2011  :LOG DATE
UWI.                    :UWI
API.                    :API NUMBER
LIC.                    :LICENSE NUMBER
#------------------------------------------------------------
~CURVE INFORMATION
DEPT.M                   :DEPTH
GR.API                 :GR
CALI.MM                  :Cali
LSD.G/CC                :LSD
SSD.G/CC                :SSD
#------------------------------------------------------------
~OTHER
#------------------------------------------------------------
~A   DEPT[M]     GR[API]    Cali[mm]    LSD[g/cc    SSD[g/cc
# ...
     239.600     40.4936     204.039     2.22816     2.34277
     239.700     50.4227     204.175     2.21305     2.31550
     239.800     51.4493     204.078     2.19629     2.46573
     239.900     79.8373     204.113     2.28337     2.51099
     240.000     73.9642     203.970     2.29031     2.40683
     240.100     106.078     204.216     2.21610     2.35711
     240.200     89.3746     203.935     2.20716     2.35644
     240.300     99.3865     204.282     2.18994     2.29067
     240.400     140.076     203.952     2.24038     2.36729
     240.500     110.109     204.238     2.18032     2.37742
     240.600     117.072     203.841     2.21257     2.32767
     240.700     59.5491     203.953     2.26419     2.37950
     240.800     118.140     203.952     2.22633     2.34034
     240.900     82.3361     204.282     2.16262     2.35240
     241.000     45.2591     204.157     2.25343     2.38632
     241.100     103.455     204.184     2.22400     2.37566
     241.200     104.391     204.295     2.19400     2.44904
     241.300     81.9910     204.174     2.21675     2.48282
     241.400     74.1239     204.059     2.24437     2.39569
     241.500     128.684     204.078     2.26522     2.41649
     241.600     113.529     204.063     2.31729     2.41356
     241.700     99.3865     204.149     2.21593     2.44321
     241.800     88.7149     204.039     2.22109     2.37493
     241.900     74.5254     203.991     2.28509     2.40757
     242.000     111.999     204.091     2.24196     2.34469
     242.100     105.666     204.404     2.24022     2.33984
     242.200     94.2940     203.846     2.16915     2.45953
     242.300     134.838     204.184     2.26671     2.40081
     242.400     70.4405     203.885     2.18649     2.39828
     242.500     100.090     204.361     2.25593     2.32903
     242.600     90.4715     203.948     2.20693     2.40752
     242.700     101.770     204.237     2.29012     2.39219
     242.800     91.6734     204.074     2.31930     2.39527
     242.900     115.786     204.156     2.30711     2.40959
     243.000     87.7118     204.037     2.22780     2.38076
     243.100     141.691     204.037     2.28369     2.34454
     243.200     76.0317     203.932     2.20720     2.39487
     243.300     119.011     203.953     2.30086     2.39854
     243.400     130.726     204.095     2.32258     2.38065
     243.500     111.420     204.039     2.26199     2.44180
     243.600     87.0312     203.913     2.19177     2.35681
     243.700     113.345     204.146     2.24833     2.42829
     243.800     85.8082     203.953     2.21792     2.38206
     243.900     95.6575     204.146     2.21647     2.35886
     244.000     99.2094     203.916     2.19761     2.44137
     244.100     99.1143     204.039     2.34281     2.38993
     244.200     116.233     204.123     2.23816     2.38501
     244.300     83.4297     204.124     2.23448     2.43909
     244.400     118.621     204.001     2.20280     2.41222
     244.500     73.3640     203.948     2.29004     2.40590
     244.600     81.6567     203.932     2.26566     2.37056
     244.700     71.3963     203.762     2.28506     2.44399
     244.800     108.067     204.074     2.31486     2.40269
     244.900     90.2878     203.803     2.22919     2.41754
     245.000     83.6220     204.146     2.17206     2.43238
     245.100     139.990     204.112     2.19895     2.44242
     245.200     87.1996     204.708     2.23729     2.44496
     245.300     96.4331     205.117     2.30435     2.40500
     245.400     120.424     205.433     2.35473     2.44914
     245.500     98.7546     205.591     2.24354     2.37594
     245.600     77.6695     205.854     2.31719     2.34221
     245.700     110.039     206.091     2.24312     2.40430
     245.800     94.0321     206.293     2.26469     2.41904
     245.900     95.1207     206.286     2.25633     2.40657
     246.000     104.572     206.736     2.22021     2.41856
     246.100     71.4703     207.092     2.23573     2.39971
     246.200     72.7410     207.269     2.24129     2.42336
     246.300     60.3515     207.426     2.19621     2.41337
     246.400     95.9522     207.772     2.24114     2.46635
     246.500     150.922     208.215     2.18243     2.40840
     246.600     89.7226     208.855     2.24157     2.38597
     246.700     119.355     209.221     2.20322     2.43134
     246.800     129.292     224.150     2.16367     2.35823
     246.900     102.615     229.694     2.19964     2.27328
     247.000     152.384     211.796     2.22065     2.35139
     247.100     98.0850     211.833     2.19244     2.31380
     247.200     70.7770     211.751     2.16703     2.39505
     247.300     127.984     211.374     2.26441     2.31679
     247.400     89.1241     211.217     2.20688     2.38013
     247.500     52.6559     211.441     2.25407     2.30132
     247.600     113.050     211.449     2.19640     2.37331
     247.700     89.7736     211.123     2.21101     2.43068
     247.800     91.7373     211.680     2.26025     2.32904
     247.900     110.217     218.623     2.21744     2.31164
     248.000     112.435     206.500     2.16508     2.28493
     248.100     103.089     206.177     2.20785     2.33459
     248.200     71.5819     205.566     2.27017     2.29489
     248.300     106.101     205.756     2.20567     2.36306
     248.400     95.6717     205.767     2.20777     2.40509
     248.500     92.7080     205.767     2.21870     2.37962
     248.600     85.3485     205.790     2.17518     2.43833
     248.700     46.2092     205.940     2.26052     2.38869
     248.800     69.2196     205.749     2.27582     2.37478
     248.900     78.5555     205.959     2.29526     2.43086
     249.000     85.4675     205.554     2.23896     2.39457
     249.100     69.8092     205.629     2.29551     2.35775
     249.200     75.3142     205.970     2.20962     2.35910
     249.300     42.4521     205.515     2.34153     2.36376
     249.400     46.8522     205.546     2.29060     2.42333
     249.500     70.7770     205.529     2.28646     2.47983
     249.600     78.3455     205.632     2.27459     2.42678
     249.700     96.1441     205.971     2.28533     2.42665
     249.800     88.3567     206.042     2.25555     2.42954
     249.900     121.576     206.406     2.29215     2.38580
     250.000     95.8960     206.353     2.27583     2.36387
     250.100     104.903     206.603     2.28691     2.38349
     250.200     89.4066     206.458     2.25600     2.42197
     250.300     79.1981     206.476     2.16712     2.39525
     250.400     112.899     206.736     2.19273     2.35130
     250.500     84.6656     206.517     2.26666     2.32459
     250.600     105.750     206.310     2.19304     2.37858
     250.700     84.0294     206.423     2.28642     2.36539
     250.800     95.1217     206.439     2.23745     2.30300
     250.900     103.656     206.195     2.24899     2.42018
     251.000     101.702     206.550     2.17022     2.43067
     251.100     86.0614     206.303     2.25417     2.41382
     251.200     99.6886     206.508     2.33757     2.38052
     251.300     73.2164     206.382     2.21143     2.40831
     251.400     45.8232     206.382     2.20188     2.40197
     251.500     80.7803     206.293     2.19215     2.43982
     251.600     83.8926     206.228     2.33160     2.42331
     251.700     74.4533     206.500     2.22126     2.38957
     251.800     76.0317     206.644     2.27047     2.37655
     251.900     66.9867     206.644     2.29104     2.36922
     252.000     64.3423     206.650     2.31229     2.39065
     252.100     66.1250     206.928     2.28666     2.37580
     252.200     62.7381     207.104     2.30294     2.37888
     252.300     46.4672     206.959     2.27346     2.35882
     252.400     51.4374     207.111     2.22989     2.36878
     252.500     42.5962     207.226     2.28510     2.40800
     252.600     48.9866     207.210     2.27590     2.40232
     252.700     105.260     207.237     2.20787     2.37130
