#------------------------------------------------------------
~VERSION INFORMATION
VERS.               2.0  :CWLS LOG ASCII STANDARD - VERSION 2.0
WRAP.                NO  :ONE LINE PER DEPTH STEP
#------------------------------------------------------------
~WELL INFORMATION
STRT.M          2.00000  :FIRST INDEX VALUE
STOP.M          716.000  :LAST INDEX VALUE
STEP.M         0.100000  :STEP
NULL.            -99999  :NULL VALUE
COMP.                    :COMPANY
WELL.            OD021F  :WELL
FLD.        OLIVE DOWNS  :FIELD
LOC.          MORANBAH  :LOCATION
LATI.                    :LATITUDE
LONG.                    :LONGITUDE
GDAT.              R.T.  :GEODETIC DATUM
SRVC.        GAA WIRELINE  :SERVICE COMPANY
CTRY.                    :COUNTRY
PROV.        BOWEN BASIN  :PROVINCE
STAT.               QLD  :STATE
CNTY.                    :COUNTY
DATE.        27-OCT-2011  :LOG DATE
UWI.                    :UWI
API.                    :API NUMBER
LIC.                    :LICENSE NUMBER
#------------------------------------------------------------
~CURVE INFORMATION
DEPT.M                   :DEPTH
GR.API                 :GR
CALI.MM                  :Cali
LSD.G/CC                :LSD
SSD.G/CC                :SSD
#------------------------------------------------------------
~OTHER
#------------------------------------------------------------
~A   DEPT[M]     GR[API]    Cali[mm]    LSD[g/cc    SSD[g/cc
# ...
     279.200     71.9124     217.591     2.12195     2.25324
     279.300     65.3250     217.318     2.20886     2.24054
     279.400     55.6174     217.306     2.20495     2.26399
     279.500     16.9721     217.622     2.22658     2.28998
     279.600     81.5852     217.352     2.15919     2.35551
     279.700     86.9513     217.298     2.19198     2.41410
     279.800     86.0836     217.625     2.31320     2.35680
     279.900     70.0008     217.597     2.25655     2.27525
     280.000     78.3941     217.594     2.29642     2.36416
     280.100     89.7145     217.347     2.20885     2.35570
     280.200     82.1220     217.623     2.27368     2.35961
     280.300     59.4906     217.606     2.21421     2.38101
     280.400     124.531     217.615     2.27880     2.39602
     280.500     50.6362     217.622     2.18241     2.30899
     280.600     111.976     217.619     2.25265     2.36588
     280.700     64.4574     217.595     2.27643     2.43347
     280.800     69.3772     217.518     2.21222     2.37884
     280.900     89.9669     217.304     2.25112     2.43979
     281.000     102.959     217.300     2.21477     2.38281
     281.100     83.5280     217.295     2.22790     2.44365
     281.200     108.083     217.312     2.26380     2.40043
     281.300     117.066     217.289     2.19452     2.42732
     281.400     89.9010     217.348     2.27708     2.40456
     281.500     88.8379     217.408     2.21209     2.39935
     281.600     107.494     217.383     2.24094     2.42650
     281.700     75.0575     217.298     2.24659     2.31487
     281.800     134.378     217.591     2.16782     2.43350
     281.900     93.7952     217.323     2.21699     2.37460
     282.000     110.548     217.282     2.35139     2.39417
     282.100     91.2260     217.331     2.22815     2.35794
     282.200     125.546     217.293     2.21116     2.34650
     282.300     84.3563     217.339     2.29195     2.40592
     282.400     47.7664     217.361     2.22256     2.35411
     282.500     71.4692     217.293     2.19888     2.42693
     282.600     81.7727     217.364     2.24378     2.38159
     282.700     78.6890     217.644     2.26681     2.37602
     282.800     59.4752     217.372     2.22406     2.32918
     282.900     60.4411     217.695     2.21278     2.37735
     283.000     93.2010     217.680     2.24936     2.35672
     283.100     63.1239     217.648     2.29314     2.37976
     283.200     116.547     217.420     2.19824     2.41418
     283.300     83.6218     217.700     2.21326     2.38908
     283.400     105.033     217.626     2.16453     2.34392
     283.500     51.4547     217.574     2.24461     2.40669
     283.600     80.8897     217.368     2.17649     2.40132
     283.700     75.1453     217.652     2.24673     2.37417
     283.800     71.2833     217.377     2.27684     2.39265
     283.900     91.4649     217.399     2.24025     2.41784
     284.000     59.3507     217.651     2.26796     2.38023
     284.100     79.6445     217.416     2.17178     2.36224
     284.200     101.477     217.681     2.22145     2.30549
     284.300     106.433     217.648     2.16276     2.34656
     284.400     122.434     217.647     2.22715     2.36448
     284.500     87.0695     217.598     2.24040     2.38674
     284.600     97.2384     217.616     2.20818     2.39944
     284.700     149.267     217.416     2.23189     2.42602
     284.800     94.6181     217.686     2.20196     2.39861
     284.900     133.846     217.404     2.26530     2.40034
     285.000     66.4162     217.371     2.27103     2.42728
     285.100     81.9817     217.710     2.25892     2.38617
     285.200     83.9011     217.737     2.26891     2.39521
     285.300     45.7941     217.708     2.32587     2.39284
     285.400     72.9351     217.462     2.21863     2.37158
     285.500     88.9383     217.338     2.19220     2.38706
     285.600     124.922     217.452     2.27365     2.36816
     285.700     96.2080     217.324     2.22355     2.39698
     285.800     87.6339     217.372     2.21503     2.39785
     285.900     79.8842     217.369     2.27686     2.37564
     286.000     96.6829     217.404     2.23174     2.42153
     286.100     91.1476     217.724     2.20236     2.35717
     286.200     71.5403     217.391     2.20794     2.44129
     286.300     40.3061     217.364     2.37135     2.38950
     286.400     111.932     217.618     2.26730     2.36941
     286.500     73.6778     217.348     2.29382     2.38774
     286.600     92.9208     217.293     2.22546     2.32620
     286.700     123.042     217.343     2.22049     2.32837
     286.800     105.744     217.619     2.20695     2.37256
     286.900     101.243     217.261     2.22440     2.37038
     287.000     36.8327     217.321     2.25420     2.42188
     287.100     46.8581     217.339     2.26273     2.43950
     287.200     63.8093     217.317     2.22659     2.40200
     287.300     41.7580     217.261     2.22357     2.38539
     287.400     70.1880     217.181     2.30390     2.38799
     287.500     53.5520     217.258     2.21652     2.47374
     287.600     56.2696     217.310     2.20640     2.49526
     287.700     82.9724     217.306     2.25269     2.46756
     287.800     87.1291     217.293     2.28178     2.37892
     287.900     56.5956     217.293     2.21966     2.34927
     288.000     39.6992     217.289     2.30427     2.36813
     288.100     73.9315     217.296     2.28709     2.38133
     288.200     65.5214     217.265     2.24369     2.41774
     288.300     93.3324     217.271     2.29369     2.39625
     288.400     100.061     217.238     2.25072     2.32860
     288.500     84.7110     217.269     2.18443     2.38099
     288.600     59.2909     216.926     2.30801     2.36741
     288.700     79.4588     216.946     2.24479     2.47009
     288.800     72.6527     217.231     2.27198     2.49859
     288.900     40.2161     217.278     2.35531     2.47418
     289.000     33.4031     217.233     2.34731     2.52538
     289.100     49.0945     216.892     2.32625     2.51076
     289.200     98.1376     217.266     2.33502     2.43756
     289.300     63.6016     217.651     2.29366     2.43829
     289.400     86.2356     217.821     2.35656     2.45681
     289.500     83.4628     217.991     2.34755     2.43617
     289.600     45.1321     218.259     2.24749     2.50569
     289.700     84.0523     218.620     2.28987     2.44192
     289.800     77.0260     218.581     2.26446     2.43295
     289.900     64.0197     218.582     2.33118     2.46307
     290.000     79.6796     218.823     2.19729     2.38768
     290.100     89.9602     219.184     2.22113     2.38581
     290.200     108.877     219.181     2.21556     2.34536
     290.300     71.0998     219.232     2.17075     2.37781
     290.400     126.755     219.289     2.21841     2.42419
     290.500     92.0937     219.517     2.22647     2.40889
     290.600     104.005     219.234     2.28661     2.46269
     290.700     92.1413     219.683     2.26269     2.45265
     290.800     105.862     219.716     2.21056     2.37975
     290.900     116.351     219.886     2.30218     2.38028
     291.000     71.1287     219.901     2.20018     2.42465
     291.100     106.140     219.812     2.21576     2.35032
     291.200     113.081     219.961     2.32346     2.36073
     291.300     70.2164     219.734     2.22019     2.41933
     291.400     62.0010     220.018     2.22342     2.42200
     291.500     77.0553     219.961     2.25505     2.46138
     291.600     94.9828     219.839     2.20566     2.41294
     291.700     54.0279     220.182     2.25970     2.36957
     291.800     89.8094     220.201     2.25463     2.42361
     291.900     80.6400     220.129     2.25025     2.43207
     292.000     66.4872     220.345     2.14832     2.43487
     292.100     97.9423     220.374     2.24826     2.40683
     292.200     102.056     220.438     2.26614     2.37454
     292.300     56.8734     220.306     2.18998     2.33166
